stop_id,stop_name,stop_lat,stop_lon
BS0001,12Th Block,10.25540684,76.49144687
BS0002,15Th Block,10.25755415,76.52972413
BS0003,6Th Block,10.25068415,76.49999676
BS0004,7Th Block,10.25240607,76.50847382
BS0005,8Th Block,10.25407948,76.51409447
BS0006,A  P Varkey Hospital Stop,9.884886155,76.44790315
BS0007,A K G,9.840161342,76.49232221
BS0008,Aala Bus Stop,10.25116547,76.18643739
BS0009,Aalamthuruthu,10.16414226,76.20681172
BS0010,Aalathoor,9.70245089,76.41901749
BS0011,Aalinchuvad,9.792108469,76.43751883
BS0012,Aalinchuvadu,10.20191638,76.52653482
BS0013,Aalumpadi,9.982284343,76.55809953
BS0014,Aana Koodu,10.18254208,76.51313337
BS0015,Aanamukku,9.996227176,76.34114979
BS0016,Aanappara,10.23231197,76.43674774
BS0017,Aanapuzha,10.20635382,76.2130256
BS0018,Aanavathil Junction,10.0708679,76.31701208
BS0019,Aanichuvadu,9.82582575,76.62991428
BS0020,Aanikkad,10.12069758,76.39523274
BS0021,Aanikkadu,9.96828939,76.61044523
BS0022,Aanikkadu Pallithazham,9.964181079,76.61576474
BS0023,Aanjilichuvadu,10.04608784,76.44916821
BS0024,Aaraam Mile,9.766574152,76.36240271
BS0025,Aaram Mile,9.698414804,76.76123371
BS0026,Aarattu Vazhi,9.727824981,76.2866061
BS0027,Aaru Muri,9.958021319,76.26904184
BS0028,Aashan Padi,9.920364763,76.53859326
BS0029,Aashan Road,10.49530832,76.06556801
BS0030,Aashankavala,9.937969869,76.80141994
BS0031,Aasherry Paalam,10.26989854,76.41198597
BS0032,Aashupathri Junction,10.03413185,76.50189595
BS0033,Aashupathri Or Light House,9.997961616,76.22206653
BS0034,Aashupathri Padi Or Chengamanadu Government Hospital,10.15450354,76.33565123
BS0035,Aashupathry Padi,10.25231408,76.3955374
BS0036,Aashupathry Padi Or Government Thaluk Hospital,10.11539139,76.48125371
BS0037,Aashupathry Padi Or Government Thaluk Hospital,10.11557523,76.48087485
BS0038,Aashupatri Stop Or Vyapara Bhavan,10.06989987,76.27594657
BS0039,Aathani,9.944143537,76.42029136
BS0040,Aathani Junction,9.871324357,76.58506892
BS0041,Aattuvela Kuzhi,9.947929662,76.50199704
BS0042,Aavoli,9.957491517,76.62359527
BS0043,Aayurathettu Or Puthiyaay,9.855007038,76.32591186
BS0044,Aayurvedha Bus Stop,9.951022756,76.36328104
BS0045,Absara Junction,9.682335475,76.34162894
BS0046,Acc Cement Factory Or Pipe line,9.825969474,76.44883366
BS0047,Acer,9.944514246,76.81276773
BS0048,Achan Pady,9.945256329,76.44423294
BS0049,Achankavala Or Palli Kutti,9.912922581,76.69506422
BS0050,Achanpadi Stop,9.841301272,76.48138088
BS0051,Achappam Kavala Or Sunitha Pady,10.03071052,76.40809568
BS0052,Achinagam,9.655345692,76.42561778
BS0053,Adam School,10.21071468,76.38767823
BS0054,Adichily Kunjambalam,10.28820174,76.41018906
BS0055,Adichily Pokkam,10.2879582,76.41210245
BS0056,Adichily Pulinchode,10.28881874,76.40702426
BS0057,Adichiy Junction,10.29037956,76.40492833
BS0058,Adivaram Bus Stop,10.07204699,76.36394188
BS0059,Adlux,10.23447146,76.3731844
BS0060,Adoorparambu Or Company Padi,9.972368299,76.60493765
BS0061,Aduvassery,10.15604895,76.31963058
BS0062,AEO Office Pazhangadu,10.08748279,76.2085635
BS0063,Agappe,10.01715345,76.45315191
BS0064,Agasthya Aashramam,9.926623551,76.369822
BS0065,Aikkarakudy Temple,10.18584488,76.53404848
BS0066,Aikkaranadu South,9.967727445,76.47019889
BS0067,Aimuri Junction,10.1498457,76.47937576
BS0068,Aimury,10.12987206,76.50959892
BS0069,Aincombu,9.777310936,76.69450854
BS0070,Aippuram,9.998586651,76.48083304
BS0071,Airapuram Kavum Padi,10.03722471,76.50353562
BS0072,airport,10.15948567,76.39023532
BS0073,Airport Bus Stop,9.936713978,76.27571763
BS0074,Airport Junction,10.15292415,76.35468428
BS0075,Airport Junction Nagar Or Arikkal,10.18556942,76.39751527
BS0076,Aiswarya Junction,10.18534613,76.22213643
BS0077,Aj John High School Or Government Hospital,9.782815589,76.45532393
BS0078,Akaashavani,10.10566813,76.47517224
BS0079,Akanad,10.15012559,76.50665009
BS0080,Akaparambu,10.15906943,76.38069935
BS0081,Akashavaani,10.12175643,76.30390007
BS0082,Akashavani Junction,10.01291823,76.34173787
BS0083,Akg,9.786417497,76.30391238
BS0084,Akshaya Stop,9.75847217,76.28327708
BS0085,Alakada Ambalam,10.11672019,76.24731215
BS0086,Alakkaparambu,9.763297631,76.31768746
BS0087,Alameen Public School,10.02878552,76.30661284
BS0088,Alameen Public School Or Edapally Gate,10.02899389,76.30535703
BS0089,Alangad Junction,10.12234989,76.30161979
BS0090,Alangad Kavu,10.12163651,76.29806641
BS0091,Alapady,10.17827662,76.32458623
BS0092,Alappuzha Private Stand,9.50026667,76.33641887
BS0093,Alapuram,9.824051456,76.54886807
BS0094,Alapuram Kavala,9.819723914,76.55250136
BS0095,Alattuchira,10.18257406,76.54050723
BS0096,Ali Peedika,10.05034948,76.35389188
BS0097,Alinchodu,10.16665915,76.46129786
BS0098,Alinchodu Or Nambooriyachan Bus Stop,10.14864546,76.22852229
BS0099,Alinchuvadu Junction,10.00586154,76.31539921
BS0100,Alingal,10.122299,76.23432211
BS0101,Allapara,9.741791622,76.69744818
BS0102,Allapra,10.09701328,76.47445856
BS0103,Allapra Kurish,10.0954362,76.4717214
BS0104,Alliance Junction,9.954072856,76.34382487
BS0105,Althara Bus Stop,10.15568899,76.221797
BS0106,Alukal Bazar,9.80850729,76.35288216
BS0107,Alummavu Or Alinchodu,10.16187175,76.21433891
BS0108,Alunkkal,9.686929751,76.30948859
BS0109,Aluva Bypass Bus Stop,10.11019812,76.34894672
BS0110,Aluva Palace,10.11269986,76.35662656
BS0111,Aluva Private Bus Stand,10.10848821,76.35088569
BS0112,Aluva Private Stand,10.11469698,76.3509009
BS0113,Aluva Stand,10.11512001,76.35819723
BS0114,Amabala Nada,10.20285799,76.43629272
BS0115,Amala Pooram,10.219101,76.46156798
BS0116,Amalagiri,9.648314284,76.53355509
BS0117,Amanakara Kavala,9.823301608,76.63417782
BS0118,Amanakara School,9.819444133,76.63685172
BS0119,Amaravathi,9.957384156,76.24245265
BS0120,Ambadimala Bus Stop,9.93294112,76.38275522
BS0121,Ambadimoola Bus Stop,10.02157972,76.33766579
BS0122,Ambala Kadavu,9.999392057,76.22120774
BS0123,Ambala Nada,10.00475578,76.31671684
BS0124,Ambala Padi,9.935737222,76.42226158
BS0125,Ambala Padi Or P W D Guest House Or Syndicate Bank,9.899847343,76.71400408
BS0126,Ambalakkulangara Temple,10.23281834,76.35092297
BS0127,Ambalam,10.03491476,76.46035122
BS0128,Ambalam kunnu junction,9.881668927,76.59467756
BS0129,Ambalam Or Ambalamugal,9.955615472,76.36132613
BS0130,Ambalam Or Harbour,9.847065864,76.26780822
BS0131,Ambalam Or Pharmacy,10.06575598,76.30031304
BS0132,Ambalam Padi Junction,9.956141894,76.50444634
BS0133,Ambalam Stop,9.970118262,76.50590423
BS0134,ambalamedu post office,9.984328038,76.38655007
BS0135,Ambalampadi,9.979391182,76.55062988
BS0136,Ambalamugal,9.962773449,76.37548646
BS0137,Ambalamughal Bpc Or Ioc,9.963559341,76.37412666
BS0138,Ambalanada,10.18075029,76.44635055
BS0139,Ambalapady,10.15948275,76.28579775
BS0140,Ambalapady Bus Stop,10.06722186,76.33776869
BS0141,Ambalappady,10.04913108,76.42500444
BS0142,Ambalappara,10.200494,76.5535491
BS0143,ambalathum kaavu,9.964173422,76.37190856
BS0144,Amballoor Pallithazham,9.873233692,76.3952096
BS0145,Ambassador Or Eloor Society,10.07396165,76.30945576
BS0146,Ambassey Junction,9.896117572,76.53295205
BS0147,Ambattukavu,10.08083382,76.33931519
BS0148,Ambikamadam,10.05185341,76.50598647
BS0149,Ame Parambu,10.13511387,76.22579904
BS0150,Ammanchery,9.642808171,76.53392485
BS0151,Amrita Hospital,10.03330992,76.29401217
BS0152,Amritha Hospital OR Poisha Company Stop,10.03488367,76.29556511
BS0153,Anappara,10.174931,76.35304019
BS0154,Anavathil,9.957824687,76.2579909
BS0155,Anavizhungi,10.39071723,76.11846403
BS0156,Anchaam Kallu,10.51670283,76.05403677
BS0157,Anchalpetty,9.903874233,76.5170089
BS0158,Anchalpetty Junction,9.903770441,76.51713646
BS0159,Ancham Peruthy,10.27051796,76.17715694
BS0160,Anchangadi,10.00450946,76.22071381
BS0161,Andhakaranazhi Bus Stand,9.747450535,76.28484128
BS0162,Andhakaranazhy Or Azheekkal Or Andhakarnaveli,9.7505151,76.28645345
BS0163,Andhakaranazhy Thekke Palam,9.747383187,76.28582999
BS0164,Andhyalunkal Padi,9.930679419,76.49755782
BS0165,Andippillikkavu Bus Stop,10.17808234,76.21094791
BS0166,Angadi,10.07066963,76.27881279
BS0167,Angamaly Junction,10.1933698,76.38666233
BS0168,Angamaly Ksrtc Stand,10.19470301,76.38613797
BS0169,Angamaly Or Angamaly Town Or Mc Road Bus Stand,10.19177267,76.38799691
BS0170,Angamaly Or Durga Ambalam Stop Or Kothakulangara,10.2023984,76.38294467
BS0171,Angamaly Private Stand Or Railway Station,10.18426854,76.38012697
BS0172,Angamaly Stop Or Durga Ambalam Or Kothakulangara,10.20287389,76.38295439
BS0173,Anganavadi,10.12254387,76.23238437
BS0174,Anganvadi,10.10703342,76.54656138
BS0175,Aniyal Bazar Bus Stop,10.07915927,76.21047345
BS0176,Anjalathodu,9.826047272,76.33672547
BS0177,Anjam Mile,9.771354901,76.69479951
BS0178,Anjilachuvadu Bus Stop,10.04905427,76.44836978
BS0179,Anjilichuvadu Bus Stop,10.04863104,76.44823769
BS0180,Anjumav,10.17428113,76.2620432
BS0181,Anjumuri,9.980600435,76.31336489
BS0182,Ankallu,10.14337783,76.52520445
BS0183,Anna Stop,10.03748638,76.41135058
BS0184,Annamanada Bus Stand,10.23929844,76.32854215
BS0185,Annamanada City Terminal,10.23858273,76.32682476
BS0186,Annamanada Junction,10.23433983,76.32842104
BS0187,Annamanada Or Amabalabada,10.23462196,76.32880129
BS0188,Ansal City,9.925990718,76.36498825
BS0189,Anthinad Ambalam,9.755518865,76.70151295
BS0190,Anthyal,9.853202725,76.53026154
BS0191,Appam Thookki Kavala Or Christhuraj Junction,9.714205152,76.29719425
BS0192,Appanchira,9.774324094,76.4758619
BS0193,Appolo Junction,9.86298193,76.51457332
BS0194,Appolo Junction Or Premier,10.06181246,76.32308921
BS0195,Aquinas,9.913100983,76.28761635
BS0196,Araam Mile,9.93940743,76.64727349
BS0197,Arakkakadavu Paalam,9.992332605,76.32731425
BS0198,Arakkapady Bank junction,10.05891276,76.45945921
BS0199,Arakkapady Junction,10.06028833,76.45987254
BS0200,Arakunnam Palli,9.88689266,76.43367813
BS0201,Arakunnu,9.886434915,76.43000893
BS0202,Aramana,10.20708805,76.45247364
BS0203,Aramanapadi,9.98248448,76.57875971
BS0204,Arathi Veli,10.12178392,76.23700727
BS0205,Arattukulam,9.6062894,76.30192858
BS0206,Arattuvazhi Valavu,9.72772981,76.29139015
BS0207,Arattuvazhy Junction,9.504967029,76.32842874
BS0208,Aravukadu,9.669426123,76.304008
BS0209,Arayankavu,9.832447339,76.42409067
BS0210,Archana Hospital,9.903481839,76.71117686
BS0211,Areekal,10.22350044,76.37587466
BS0212,Areekkal Vellachattam,9.918855925,76.53742986
BS0213,Areekkathazham,9.921279105,76.53229474
BS0214,Arikkal,10.18584681,76.39745067
BS0215,Arookutty,9.870149637,76.32351661
BS0216,Arookutty Panjayath,9.864600848,76.32397631
BS0217,Aroor Palli,9.876530427,76.30390133
BS0218,Aroor Petrol Pump Bus Stop,9.860995473,76.30608092
BS0219,Aroor School,9.867952309,76.30734771
BS0220,Aroor Temple,9.866320686,76.30529399
BS0221,Aroor Temple Or Aroor Signal,9.867693222,76.3052781
BS0222,Arthunkkal Bypass,9.687169325,76.3308375
BS0223,Arthunkkal Hospital,9.658422936,76.29953965
BS0224,Arthunkkal Palli,9.660654525,76.29929733
BS0225,Aruvapara,10.14249258,76.56932333
BS0226,Asamannur,10.11441477,76.55717069
BS0227,Asaram school bus stop,10.11415016,76.48963568
BS0228,Ashamannoor School Or Ashamannoor Paalam,10.11004502,76.55209688
BS0229,Ashan Maithanam,10.17863488,76.22501162
BS0230,Ashanpadi,9.938855708,76.45070935
BS0231,Ashanpady,10.05578679,76.39503787
BS0232,Asheripady,10.06385995,76.39310751
BS0233,Ashokapuram Bus Stop,10.0894743,76.36292816
BS0234,Ashramam,9.840394874,76.26935804
BS0235,Ashramam Kavala,9.950222691,76.43268034
BS0236,Ashramam Padi,10.22738407,76.32878495
BS0237,Ashwathy Junction,9.864503909,76.5927181
BS0238,Asoka Theatre,10.22098882,76.20123328
BS0239,Aspatrypady,9.909335745,76.51987385
BS0240,Aspin Wall,9.967867539,76.24682157
BS0241,Asram School Or Aashramam School Stop,10.11676329,76.48870097
BS0242,Asramam Junction,9.98266533,76.44237589
BS0243,Asramam Junction Or Kalady Town,10.16754263,76.44033824
BS0244,Assise Jn,10.19782487,76.25178545
BS0245,Assisi Madam,10.23106595,76.39105313
BS0246,Assisi Mount School Stop,9.821726,76.43180264
BS0247,Assisi Nagar Or Kapela,10.23071377,76.36340613
BS0248,Assissi,10.09570298,76.3560191
BS0249,Assissi Or Little Flower Junction,10.09585946,76.35880616
BS0250,Aster Medicity,10.04394579,76.27392875
BS0251,Asupatrypady Hospital,10.10140648,76.26592328
BS0252,Athani,10.13108739,76.23327261
BS0253,Athani Junction,10.15538377,76.35207785
BS0254,Athira,9.99286177,76.22546058
BS0255,Athirampuzha,9.66817044,76.53396162
BS0256,Athirampuzha Mg University,9.660314068,76.52954925
BS0257,Atlantis Junction Or Shipyard,9.955590882,76.29229225
BS0258,Atlas,10.16386899,76.40179851
BS0259,Attakanal Or Mullakapalam,9.799539875,76.58498418
BS0260,Attakanal Palam,9.801891619,76.58076262
BS0261,Attara,10.24739006,76.40805284
BS0262,Attara Palam,9.738933827,76.40789497
BS0263,Attara Pally Stop,10.24652102,76.41282113
BS0264,Attinikkara Stop,9.930169734,76.43151255
BS0265,Attipady,9.925274579,76.7651737
BS0266,Attupuram,10.1746377,76.29999647
BS0267,Attupuram kurishu,10.17748627,76.30339013
BS0268,Avanakod Ambalam,10.14719151,76.38123681
BS0269,avanamkodu ambalam,10.14715646,76.38124844
BS0270,Avt,9.964660662,76.26695689
BS0271,Avt Junction,10.02855593,76.49897201
BS0272,Ayakkad,10.08883998,76.60896766
BS0273,Ayapilly,10.10947104,76.22949148
BS0274,Ayarkulam Ambalam Padi,9.928333625,76.48495981
BS0275,Ayna Mughal,9.963908751,76.42379539
BS0276,Ayodhyapuram Or University,9.989602077,76.2286807
BS0277,Ayroor S Valav,10.17732721,76.31499471
BS0278,Ayroor School,10.17692395,76.30677676
BS0279,Ayurveda Padi,9.916853767,76.46334733
BS0280,Ayurvedapadi,9.926936847,76.48386543
BS0281,Ayuvedha Kavala,9.888403821,76.40619922
BS0282,Ayyam pilly stop,10.11768226,76.20017724
BS0283,Ayyampily Government Hospital,10.12630469,76.19835132
BS0284,Ayyampuzha,10.25368984,76.47826681
BS0285,Ayyampuzha Church Or Panchayath,10.25309616,76.47670022
BS0286,Ayyapankav Or Kunjamanni Junction,9.997756266,76.28544212
BS0287,Ayyapankavu,9.995960441,76.28050341
BS0288,Azhakam,10.22575732,76.39844999
BS0289,Azhakam East,10.22565796,76.40235375
BS0290,Azhakam School,10.22593887,76.40481942
BS0291,Azheekkal Or Government School Vypin,9.975484868,76.24221933
BS0292,Badani Ashramam,10.07863245,76.35763424
BS0293,Badhanippadi,10.02963817,76.52623127
BS0294,Bakery Bus Stop,10.14840516,76.19019317
BS0295,Bakery Junction Or Koottukadu Junction,10.1781178,76.22311348
BS0296,Balamuruga Temple,10.17092245,76.23669076
BS0297,Balavadipuram,9.817487901,76.55657774
BS0298,Balummel Or Krishibhavan,9.873040382,76.26538363
BS0299,Banglav Pady,10.13066517,76.26071873
BS0300,Bank,9.992255472,76.78914259
BS0301,Bank Junction,10.18924899,76.38518293
BS0302,Bank Junction Or Najath Hospital,10.1114338,76.35140944
BS0303,Bankum Padi,9.869657804,76.57247665
BS0304,Bankupaddi,10.06398237,76.28535858
BS0305,Baselios School,9.914204599,76.42298862
BS0306,Basil Junction,10.00246837,76.2221692
BS0307,Bava Pady,10.06806981,76.40634527
BS0308,Bava Pally Or Kannankulangara Temple,10.15050035,76.22330622
BS0309,Bavapady,10.06805099,76.40634454
BS0310,Bazar,9.828713598,76.27180839
BS0311,Bbc,10.15684065,76.17316017
BS0312,BDPP,9.998879351,76.37199272
BS0313,Beach Road Bus Stop,9.939499927,76.24486672
BS0314,Beach Road Or South Moolam Kuzhi,9.935220176,76.24904367
BS0315,Bedhani Kurishu,10.07977119,76.47119112
BS0316,Belbo Junction Or Seaport,9.992177864,76.23835558
BS0317,Beslaham Kurishingal,10.24317458,76.37964986
BS0318,Bhadani Padi,9.979198522,76.51532779
BS0319,Bhagavathy Kshethram,10.14120747,76.18809773
BS0320,Bhagavathy Vilasam,10.07163099,76.21188924
BS0321,Bhandara Kavala,10.04348644,76.44860305
BS0322,Bharananganam,9.701412904,76.72549076
BS0323,Bharath Matha College,10.03039868,76.33610222
BS0324,Bharath Petroleum,9.979431312,76.35308629
BS0325,Bharnganam,9.701278448,76.72570819
BS0326,Bhavan S Vidya Mandhir,10.01685863,76.29187469
BS0327,Bible College,10.03063147,76.37565184
BS0328,Blayipady,9.946976656,76.46106502
BS0329,Block Kavala,9.998562359,76.56743359
BS0330,Block Panchayath,9.816096795,76.35131952
BS0331,Block Panchyath,9.816265847,76.35130962
BS0332,Boat Jetty,10.07149416,76.22262335
BS0333,Boat Jetty Or Police Station,9.749651822,76.39163514
BS0334,Boc Stop Or Nehru Park Stop,9.98970033,76.57861724
BS0335,Bolgatty Bus Stop,9.991393962,76.26482847
BS0336,Bolgatty Palli,9.995168538,76.26457472
BS0337,Bolgatty Stop,9.991306462,76.26519717
BS0338,Bombay Oils Or Company Padi,10.17713504,76.37197266
BS0339,Bot Bridge Bus Stop,9.931434331,76.26763819
BS0340,Boys School,9.899935254,76.72081574
BS0341,Boys Town,9.726992384,76.67172251
BS0342,bpcl,9.968476476,76.38050504
BS0343,Brahmapuram,9.815117464,76.42362033
BS0344,Bristow Road Or Park Bus Stop,9.955246158,76.26982781
BS0345,Bund Road,9.673939195,76.42164017
BS0346,Bund Stop,9.9449075,76.31831095
BS0347,Bypass,10.10928245,76.34927982
BS0348,C I F T Junction,9.938821219,76.26953442
BS0349,Cable Junction,10.23661164,76.3737423
BS0350,Cable Nagar,10.23680103,76.37613973
BS0351,calicut jn,9.871736983,76.59578532
BS0352,Call Pin,9.636339005,76.29866931
BS0353,Camp,10.01705462,76.25740687
BS0354,Canal,10.05743548,76.42202624
BS0355,Canal Bandu,10.15597105,76.5262072
BS0356,Canal Bus Stop,10.09200702,76.44493272
BS0357,Canal Junction,10.08734349,76.35888233
BS0358,Canal Kavala,10.07371117,76.48318386
BS0359,Canal Padi,9.940389279,76.49708723
BS0360,Canal Pady,9.988373585,76.42357087
BS0361,Canal Palam,10.12089859,76.52594757
BS0362,Canal Stop,10.1245406,76.44717866
BS0363,Carbon Company,9.991728208,76.39790791
BS0364,cargo,10.15931679,76.38630212
BS0365,Carmel Bus Stop,10.09048242,76.36131812
BS0366,Carmel Hospital,9.718371393,76.69113416
BS0367,carnival infopark,10.0145071,76.36457104
BS0368,Cartz,9.897088562,76.7139407
BS0369,Cemetery,9.991742452,76.28154095
BS0370,cemetery pady,10.05934515,76.31832571
BS0371,Cemetery stop,10.06852839,76.26702852
BS0372,Cemetry,9.987688872,76.26934254
BS0373,Central Junction,9.687245575,76.77921491
BS0374,Cet College,10.04018656,76.50291219
BS0375,Ceylon Kavala,9.783765518,76.46246279
BS0376,Chaapakadavu,9.787168205,76.2784736
BS0377,Chagaram School,9.797821553,76.30178163
BS0378,Chakkamadam Bus Stop,9.954845849,76.25781381
BS0379,Chakkapady,9.888450877,76.55791437
BS0380,Chakkaraparambu,9.989440934,76.31549356
BS0381,Chakku Company,9.994725425,76.39627443
BS0382,Chakkuketti Kavala,10.18619619,76.49682866
BS0383,Chakkukulam,9.871075395,76.38006922
BS0384,Chakkumarassery Bus Stop,10.16732237,76.21301786
BS0385,Chako,10.11767476,76.51634182
BS0386,Chakola,9.945659951,76.29348845
BS0387,Chakram Pallikav,10.21983211,76.32059757
BS0388,Chalaka Med College,10.1552125,76.28245703
BS0389,Chalaka Medical College,10.15516478,76.28246679
BS0390,Chalakal,10.12057161,76.40004229
BS0391,Chalakka Junction,10.15546171,76.28438541
BS0392,Chalakkadavu,9.843377484,76.2687615
BS0393,Chalakkal East Or Chakkankulangara,10.09925229,76.40662082
BS0394,Chalakkappara,9.845308056,76.41291452
BS0395,Chalakkudy Government  Hospital,10.29787871,76.33727229
BS0396,Chalakudy Pally Nada,10.30278062,76.33751972
BS0397,Chalapparambu,9.758902381,76.40716045
BS0398,Chalappuram Stop,9.919226242,76.44141072
BS0399,Chaleppally Bus Stop,10.06506309,76.3594649
BS0400,Chalipaalam,10.17210242,76.22730219
BS0401,Chalipuram,9.864613686,76.26781043
BS0402,Challenge Stop,9.723055718,76.29605156
BS0403,Chambakkadu,9.665215087,76.30429773
BS0404,Chambakkara,9.952831124,76.32652628
BS0405,Chambilipady,10.01948325,76.49388005
BS0406,Chammanadu Bus Stop,9.809239391,76.31385226
BS0407,Chamminy,10.19325821,76.5057119
BS0408,Champanoor,10.17568715,76.36583881
BS0409,Champion School Bus Stop Or Changapuzha Cross Road,10.02491564,76.29854653
BS0410,Chanakakuzhi,10.05486258,76.51903623
BS0411,Chandappura,10.23192941,76.19597593
BS0412,Chandikkavala,10.23313824,76.41552476
BS0413,Chandiroor Bus Stop,9.844255518,76.30810395
BS0414,Chandiroor Government School,9.851397725,76.30741533
BS0415,Chandrapinni,10.35625224,76.12801725
BS0416,Chandrapuraa,10.20457386,76.45224551
BS0417,Changala Bridge,9.842240776,76.47534905
BS0418,Changampuzha Park,10.01485866,76.30210273
BS0419,Changarathodu,9.789338026,76.30340687
BS0420,Changhampuzha Road Stop,10.01979146,76.2975423
BS0421,Chanthakappela Or Market Stop,10.10293999,76.26344547
BS0422,Chanthapady,10.40425469,76.11172293
BS0423,Chanthappura,10.23341232,76.19467741
BS0424,Charis Hospital Junction,10.00734403,76.56925954
BS0425,Chathamma School,9.897662363,76.33648824
BS0426,Chathamma Stop,9.887168514,76.33930027
BS0427,Chathanad,10.0772575,76.24005971
BS0428,Chathanad Pally,10.08221826,76.23825727
BS0429,Chathari Bus Stop,9.948874332,76.35533981
BS0430,Chathayam,9.855465479,76.29349028
BS0431,chattari,9.948767357,76.3542784
BS0432,Chattupaara,10.23529349,76.45075233
BS0433,Chavadi,9.774142102,76.3061667
BS0434,Chavakkadu,10.58039767,76.02517083
BS0435,Chavakkadu Bypass,10.57864875,76.02485499
BS0436,Chavara School,9.816623349,76.63780684
BS0437,Chavelipadam,10.05644974,76.51087328
BS0438,Chavittuvari,9.611349545,76.53336417
BS0439,Chebiyoor,10.19706824,76.48865312
BS0440,Chebiyoor Church,10.19739908,76.48941673
BS0441,Chech Post,10.23901884,76.50526445
BS0442,Check Post,10.19935344,76.51294754
BS0443,Chedamangakalam,10.17502345,76.23538498
BS0444,Cheeda Mukku,10.24576794,76.38358937
BS0445,Cheerakkattupaara,9.916275844,76.44267551
BS0446,Chekuthankuzhy Or Kanal Palam,10.23318699,76.35257651
BS0447,Chelad Church,10.095976,76.64028116
BS0448,Chelad Erappu,10.099411,76.64335191
BS0449,Chelakkulam,10.05139377,76.44911312
BS0450,Chelakkulam Thaikavu,10.05335901,76.43162465
BS0451,Chelamattam,10.14784522,76.45719091
BS0452,Chelamattom,10.14043823,76.46309384
BS0453,Chellakkapadi Or Digital Junction,9.866111969,76.59026134
BS0454,Chellanam,9.790965539,76.27783812
BS0455,Chellanam Panchayath,9.851374662,76.26668494
BS0456,Chellapram,9.991090499,76.23472104
BS0457,Chemabarakky,10.08825816,76.42627154
BS0458,Chembakasserry Junction,10.1068716,76.36257579
BS0459,Chembarakky,10.08825359,76.4262041
BS0460,Chembu,9.807322294,76.39689
BS0461,Chembu Juma Masjid,9.814559152,76.39534091
BS0462,Chemmalappady,10.05549434,76.41141371
BS0463,Chemmanadu Ambalam,9.94506428,76.41559611
BS0464,Chemmanakari,9.788579725,76.37665818
BS0465,Chemmayam,10.10138822,76.25048352
BS0466,Chemmens Junction,9.93435753,76.25645084
BS0467,Chempumukku Bus Stop,10.01121302,76.32170247
BS0468,Chendamangalam Junction,10.14987024,76.23490362
BS0469,Chenekadan Kavala,10.19998954,76.45327032
BS0470,Chengada Adivaram,9.708894942,76.35753066
BS0471,Chengada Bridge,9.706190689,76.35708705
BS0472,Chengada Valavu,9.7033178,76.35634266
BS0473,Chengal,10.16794062,76.43520089
BS0474,Chengal Ambalanada,10.15686222,76.42861308
BS0475,Chengal Palam,10.14941111,76.42581892
BS0476,Chengamanad,10.15353016,76.34047846
BS0477,Chengamanadu Junction,10.15351116,76.33992298
BS0478,Chengara Or Pddp Pady,10.03613427,76.46069012
BS0479,Chengothukunnu East,10.11004184,76.27534018
BS0480,Chennam Or Ottapunna,9.739047798,76.36271234
BS0481,Chennavely Palli,9.632301184,76.2994046
BS0482,Chennur Ambalam,10.06193058,76.26765707
BS0483,Chennur Or Pizhalakkadav,10.05330104,76.26253593
BS0484,Chennurpalli,10.0592358,76.26657313
BS0485,Chenoor Kavala,10.06764126,76.269008
BS0486,Chenthuruthy,10.22617796,76.24690885
BS0487,Chera,10.14008174,76.48401913
BS0488,Cherai  Beach Junction,10.14323531,76.19215255
BS0489,Cherai Ambalam,9.912108775,76.69804814
BS0490,Cherai Beach Junction,10.14315358,76.19216796
BS0491,Cherai Beach Road Stop,10.13925524,76.1793624
BS0492,Cherai Bridge Stop,10.14076269,76.20284101
BS0493,Cheraman Masjid,10.21291918,76.20254934
BS0494,Cherambattupadi,9.9572917,76.47815382
BS0495,Cheranalloor,10.06968508,76.28406236
BS0496,Cheranalloor Ambalapady,10.05459607,76.28265628
BS0497,Cheranalloor Boat Jetty,10.06891287,76.28326744
BS0498,Cheranalloor Ferry Bus Stand,10.0723262,76.28283147
BS0499,Cheranalloor Signal,10.06092685,76.28899595
BS0500,Cheranallur Bagavathy Temple,10.05346104,76.28840418
BS0501,Cheranaloor Or Thykkavu,10.05092949,76.29389104
BS0502,Cherappadi,9.965822403,76.47841556
BS0503,Cheriya Kadav Shapp,9.9015025,76.25720703
BS0504,Cheriya Kadavu Shap,9.898961042,76.25783685
BS0505,Cheriya Vappalassery Palli Or Telk,10.17115337,76.37308869
BS0506,Cheriyakadavu Palli Or Carma Hall,9.893953445,76.25900112
BS0507,Cheriyapallam Turuth Junction Or Cheriyavallamthuruth,10.16016737,76.22254552
BS0508,Cheriyapallitazham Bus bay,10.06331272,76.62898302
BS0509,Cheriyapallithazham bus bay,10.06325631,76.62894929
BS0510,Cheriyapozhi Palli,9.551928904,76.31144334
BS0511,Cheriyappilly,10.1230236,76.24544101
BS0512,Cherkum Kavala Or Manjapra Road,10.19772688,76.39670825
BS0513,Cherthala Private Bus Station,9.685761486,76.33878077
BS0514,Cherthala Railway Station,9.691729495,76.32538719
BS0515,Cherukunnam,10.10217911,76.54115208
BS0516,Cherukunnam Companyppadi,10.10461075,76.53806652
BS0517,Cherum Chuvadu,9.740415274,76.40123461
BS0518,Cherunalladu,10.02384608,76.52298972
BS0519,Cherunalladu Kurishu Pally,10.02620633,76.52242698
BS0520,Cherunkal,10.03014096,76.4411507
BS0521,Cheruvype Junction,10.11343096,76.20171167
BS0522,Chethicode,10.16344098,76.40599491
BS0523,Chethimattom,9.77622664,76.61287968
BS0524,Chethy Palli,9.621750087,76.30046363
BS0525,Chettikadu,9.531308484,76.31603535
BS0526,Chettikunn Junction,10.23715493,76.34378982
BS0527,Chettinada Ambalam Stop,10.18217924,76.52785959
BS0528,Chettukullam,9.796618775,76.59035637
BS0529,Chettuva,10.52947337,76.04722253
BS0530,Chettuva Kadavu,10.54891943,76.04136848
BS0531,Chilanga,10.464932,76.08273822
BS0532,Chillanthode,10.1546882,76.54988335
BS0533,China Chayakada,9.523472259,76.31752576
BS0534,Chinikkuzhy,10.04507093,76.48455983
BS0535,Chinmaya,9.878004222,76.45509456
BS0536,Chinnama Mukku,10.06996165,76.3608951
BS0537,Chirakkara,9.93920582,76.64935725
BS0538,Chirakkarappadi Or Aramanappadi,9.984439953,76.50298355
BS0539,Chirangara,10.05506425,76.4356681
BS0540,Chirangara Ambalam,10.13507813,76.43708069
BS0541,Chirapadi,9.928250302,76.51378056
BS0542,Chirappady,10.10188529,76.51884339
BS0543,Chirattaapalam Junction,9.961346276,76.24577906
BS0544,Chirattapaalam Junction,9.960883305,76.24296542
BS0545,Chirayam,10.10129328,76.28546095
BS0546,chithirapuzha,9.960011977,76.36210173
BS0547,Chithra junction Or Koonammavu Junction,10.10059244,76.26414355
BS0548,Chithra junction Or Koonammavu Junction,10.10060208,76.26396636
BS0549,Chitrapuzha,9.959319295,76.36730165
BS0550,Chittanadu,10.02652306,76.3989572
BS0551,Chittattukara Junction,10.15254464,76.21421712
BS0552,Chittethukara Bus Stand,9.998208251,76.35059421
BS0553,Chittethukara Rajagiri,9.995764244,76.35146789
BS0554,Chittethukara Thaikavu Junction,10.00177938,76.34941029
BS0555,Chittoor Ferry,10.038113,76.269865
BS0556,Chittoor Palli,10.03050401,76.27519962
BS0557,Chittoor Temple Bus Stop,10.03319183,76.27410522
BS0558,Chittor Dhyanakendram Or Shap Pady,10.03731595,76.27527324
BS0559,Chittor Dhyanakendram Or Shap Pady Or Panchayath,10.03797953,76.27532349
BS0560,Chonangamveli,10.08869406,76.38408586
BS0561,Chonangamveli Canal,10.08551836,76.37936016
BS0562,Chondanthuruth,10.167596,76.3317783
BS0563,Choondi Police Station Bus Stop,9.970348436,76.43561019
BS0564,Choondiyakav,10.13365651,76.22452355
BS0565,Choondy,10.08496344,76.37162009
BS0566,Choondy Junction Bus Stop,9.969384952,76.43869282
BS0567,Choorakkadu,9.930663867,76.35467998
BS0568,Choorakodu Pally,10.04222927,76.44135068
BS0569,Chooramudi,10.16554199,76.53523215
BS0570,Chooramudi Junction,10.16632942,76.54296445
BS0571,Choorathod,10.14575458,76.53972798
BS0572,Chottanikkara Grama Panchayath,9.928697916,76.39032959
BS0573,Chottanikkara Temple,9.93318783,76.39035325
BS0574,Chottanikkara Temple Bus Stop,9.931893391,76.39002842
BS0575,Chowara,10.12697362,76.38790623
BS0576,Chowara Ferry,10.12000524,76.38631753
BS0577,Chowara Kadavu Or Pally,10.12569471,76.38519607
BS0578,Chullampady,10.02032424,76.4081454
BS0579,Chulli,9.613925475,76.30140225
BS0580,Chullikal,9.94555521,76.25591639
BS0581,Chullikal Abad,9.944946777,76.25821964
BS0582,Chullikkal Abad,9.944930265,76.25821763
BS0583,Chullippadi,10.52243563,76.0509466
BS0584,Chunangamvely,10.0870626,76.38344131
BS0585,Chundakuzhi Junction,10.14668814,76.50848445
BS0586,Chungam,10.15665719,76.32637146
BS0587,Chungam Stop,10.19137767,76.38664404
BS0588,Chungampaara,9.889885359,76.46553562
BS0589,Chungath Junction,10.30629009,76.33816144
BS0590,Chunkam,9.79365056,76.43078647
BS0591,Chunkapura,9.702099685,76.75527049
BS0592,Chunnikavala  Chappel Stop,10.22510547,76.43769003
BS0593,Church,10.22690768,76.38357566
BS0594,Civil Junction Or Ooramana,9.966462783,76.50536858
BS0595,Ck Valavu,10.29344258,76.15886449
BS0596,club,9.983924205,76.39643602
BS0597,Club Junction,10.02776187,76.31575409
BS0598,Clubumppady,10.09994049,76.23326024
BS0599,Cmfri,9.988482359,76.27144942
BS0600,Cms,9.904847601,76.2560833
BS0601,Cochin Bank Junction,10.08862127,76.36464892
BS0602,Cochin Port Junction,9.935347071,76.27139373
BS0603,Cochin Shipyard Gate,9.957551129,76.2896621
BS0604,Cochin University Bus Stop,10.04175336,76.32826483
BS0605,College Junction,9.554763185,76.31083615
BS0606,College Pady,9.693010687,76.76994754
BS0607,Colombo Junction,9.972135692,76.27311332
BS0608,Colony,10.05283797,76.30249703
BS0609,Colony Junction Or Surya Tv,10.01329078,76.3303013
BS0610,Colony Junction Road,9.857417818,76.40432311
BS0611,Colony Kavala,9.921091778,76.6812521
BS0612,Colony Padi,10.04167068,76.50281195
BS0613,Colony Pady,10.23072915,76.3566172
BS0614,Colony Stop,9.991767123,76.40568752
BS0615,Colony Triveni Bus Stop,9.87795312,76.37710685
BS0616,Colonypadi,10.08773339,76.36787512
BS0617,Colonypady,10.11148567,76.28242347
BS0618,Comapanypeedika Bus Stop,10.00075682,76.23479604
BS0619,Companippady,10.08700785,76.46780442
BS0620,Company Kadavu Or Aarattu Kadavu,10.14974893,76.17594316
BS0621,Company Padi,10.56732256,76.03062469
BS0622,Company Padi Olakkadu,9.870795731,76.54670451
BS0623,Company Padi Or Fact,10.07383903,76.29798155
BS0624,Company Padi Or Hpc Stop,9.831821688,76.46954666
BS0625,Company Pady,10.13829085,76.50810727
BS0626,Companypaday,9.889372648,76.26019945
BS0627,Companypadi Meladoor,10.23212952,76.29653094
BS0628,Companypady,10.18449639,76.46696993
BS0629,Companypady Junction Bus Stop,10.08779836,76.34320127
BS0630,Compara Junction,9.987400426,76.27666002
BS0631,Compression Mukku Bus Stop,9.885653063,76.28665085
BS0632,Congress Bhavan,10.0001188,76.38054042
BS0633,Convent,10.16574085,76.24850331
BS0634,Convent  School,9.710626925,76.28808227
BS0635,Convent Bus Stop,10.163049,76.43492876
BS0636,Convent Junction,9.937568505,76.26251844
BS0637,Convent Junction Or Market Road,9.975561128,76.28043631
BS0638,Convent Junction Or Sacred Heart Bus Stop,9.873468586,76.28967897
BS0639,Convent Kavala,10.20163938,76.52319821
BS0640,Convent Road Junction,10.04583443,76.2207272
BS0641,Convent Stop,10.24521179,76.38145592
BS0642,Court Junction Or Kodathy Kavala,9.690395197,76.34285591
BS0643,Court Junction Or Kodathy Kavala,9.690358609,76.34273843
BS0644,CPT Junction,9.935808646,76.27174696
BS0645,Cpt Junction Or Halt Busstop,9.935819441,76.27128096
BS0646,cross road,9.961077993,76.29557109
BS0647,Csez,10.00661195,76.3429488
BS0648,Ct Bus Stop,10.06778541,76.21260124
BS0649,Cusat,10.04727227,76.31852074
BS0650,Cusat Junction,10.0457829,76.32324212
BS0651,Cusat Main Office,10.04434112,76.32462889
BS0652,D L B Stop,9.964068628,76.26522011
BS0653,Dairy Pady,10.16113803,76.47313259
BS0654,Daivam Padi,10.03308112,76.46026494
BS0655,Damodaran Peedika,10.03528123,76.47846052
BS0656,Darmagiri,10.06431939,76.62701876
BS0657,Db College,9.802512095,76.45830767
BS0658,DD Tower or Bismi,9.989561416,76.29475873
BS0659,Deepthi,9.704145726,76.74049161
BS0660,Deepthi Bhavan,10.2803806,76.42590415
BS0661,Derbathotty,9.969722352,76.81023302
BS0662,Deshabhimani Junction Bus Stop,9.999400787,76.29775882
BS0663,Desom Junction Bus Stop,10.12951976,76.35156024
BS0664,Desom Kadavu,10.12591338,76.35146375
BS0665,Desom Kunnumpuram,10.13018692,76.34544311
BS0666,Devasam Nada Junction,10.13996351,76.19412482
BS0667,Devaswam Nada Junction,10.13889541,76.19440702
BS0668,Devaswam Nada Junction Or Cherai,10.13922727,76.19461676
BS0669,Devipadi,9.878466055,76.48338799
BS0670,Dhanwanthari,9.896717479,76.70922433
BS0671,Dhanya Pady,10.23730732,76.35041536
BS0672,Dharma Daivam,10.11267098,76.54508079
BS0673,Dhevasthanam,10.16739179,76.24483669
BS0674,Diamon Mukk,10.14993734,76.26717707
BS0675,Diamond Mukku,10.15195958,76.26699552
BS0676,Diary Kavala,10.20130707,76.42209816
BS0677,Diary pady,10.19049778,76.50528948
BS0678,Diary Stop,10.13702087,76.43250367
BS0679,Dispensary,10.15421035,76.18837717
BS0680,District Court Or Maharajas College Bus Stop,9.969736165,76.28058148
BS0681,District Jail Or Adarsh Bus Stop,10.0038957,76.34697118
BS0682,Divine,10.28811557,76.33842826
BS0683,Divine Farm,10.28776432,76.34833133
BS0684,Divine Hospital,10.17145669,76.39830199
BS0685,Divine Mercy Church Or Pailypeedika,10.25094646,76.42657123
BS0686,Divine Nagar,10.0288125,76.27526756
BS0687,Don Bosco Lane,9.926451939,76.25492588
BS0688,Double Paalam,10.03060367,76.44886775
BS0689,Double Post,10.14938385,76.45488017
BS0690,Durga Shetram Or Ambala Nada,10.07562357,76.26953583
BS0691,Dye House Bus Stop,10.16475059,76.23307726
BS0692,Dynamic,10.07754849,76.36395549
BS0693,East Chembarakki Or Jamia Junction,10.08941119,76.4335917
BS0694,East Kadungalloor Bus Stop,10.11502264,76.32991827
BS0695,East Karuvelipady Bus Stop,9.940691191,76.26017775
BS0696,East Karuvelippady,9.939539674,76.26027587
BS0697,East Nada Or Elamkunnapuzha,10.03081549,76.23219045
BS0698,East Nagar Junction,10.18873978,76.3929083
BS0699,East Nagar Junction Or Amalobava Kappela,10.18856676,76.39280008
BS0700,Edachira,10.01678525,76.3691671
BS0701,Edackattukayattam,9.915569895,76.69013931
BS0702,Edakkattu Vayal Junction,9.867296307,76.43762046
BS0703,Edakochi,9.895146383,76.29684855
BS0704,Edakunnu Kappela,10.25428169,76.40444161
BS0705,Edakunnu Palli,10.25696217,76.40392595
BS0706,Edalakadu Junction,10.27057717,76.4367583
BS0707,Edalakkadu Junction,10.27039171,76.43677896
BS0708,Edamalayar Canal,10.22317933,76.43831124
BS0709,Edampadam Palli,10.06893611,76.27988409
BS0710,Edamuttam,10.374677,76.1235017
BS0711,Edanadu,9.738248074,76.65615372
BS0712,Edapady,9.709341453,76.71188665
BS0713,Edapally Bypass Bus Stop,10.01311945,76.26948247
BS0714,Edapally Gate,10.03286632,76.3042634
BS0715,Edapally Junction,10.02239273,76.28179701
BS0716,Edappally Church Bus Stop,10.02073499,76.30586207
BS0717,Edappally Station Kavala Bus Stop,10.02144665,76.30612085
BS0718,Edappally Toll,10.02871026,76.31060345
BS0719,Edassery,10.45757437,76.08605642
BS0720,Edathala Panchayath,10.07198821,76.3814338
BS0721,Edathrakkavu,10.30819427,76.38910319
BS0722,Edathuruth,10.13029428,76.54655691
BS0723,Edavanakkad Palli Stop,10.08275712,76.20963491
BS0724,Edavoor Ashan Kavala,10.16778146,76.46884823
BS0725,Edayakunnam,10.0400063,76.28530462
BS0726,Edayakunnam Kappela,10.04685787,76.28683235
BS0727,Edayakunnm Kappela,10.04685985,76.28687493
BS0728,Edayar Industrial Estate Bus Stop,10.08382184,76.31399895
BS0729,Edayar Junction Bus Stop,10.08743196,76.303111
BS0730,Edayar Palli Padi,9.869458536,76.55644851
BS0731,Edayazham,9.686975484,76.41995113
BS0732,Edayoor,10.23220151,76.31423003
BS0733,Eechamukku,10.00957634,76.34286164
BS0734,Eecharan Kavala,10.06720255,76.44770146
BS0735,Eereth Junction,9.77626814,76.4326735
BS0736,Eetakadavu,10.18154128,76.46437937
BS0737,Eettakadavu,10.1814607,76.46435467
BS0738,Elamakkara,10.00954038,76.29355067
BS0739,Elamakulam Junction Bus Stop,9.967708142,76.30512859
BS0740,Elambakapilly Kanal Bund Road,10.15494062,76.49291962
BS0741,Elambakapilly Thriveni Junction,10.16389723,76.49111811
BS0742,Elambakapilly Valavu,10.15980265,76.492587
BS0743,Elamkavu,10.12834195,76.547118
BS0744,Elamkulam,9.96687831,76.31308771
BS0745,Elamkunnapuzha,10.03060473,76.22197046
BS0746,Elamkunnapuzha Or Karthedam,10.02179642,76.23212328
BS0747,Elanji,9.830633608,76.54513404
BS0748,Elanji Kurishu Palli,9.832797517,76.54291155
BS0749,Elanji Private Bus Stand,9.829832656,76.54643445
BS0750,Elanthikara Junction,10.17483207,76.26653699
BS0751,Elavanparambu,10.08193151,76.63356074
BS0752,Elavoor,10.20915288,76.33287264
BS0753,Elavoor Kavala,10.21673743,76.377605
BS0754,Elavoor Paara,10.21694306,76.34607489
BS0755,Elecetricty Stop,9.90123489,76.36847919
BS0756,Electricity Junction,9.797568517,76.35414953
BS0757,Elite Pady,10.49868536,76.06391508
BS0758,Eliyekunnu Stop,9.908106024,76.39937032
BS0759,Ellap Aashupathri,10.19127994,76.38859327
BS0760,Eloor Depot,10.08619001,76.28947987
BS0761,Eloor Dipot,10.08617085,76.28950849
BS0762,Eloor Ferry,10.07327896,76.28301273
BS0763,Eloor Ferry Or Mannamthuruth Ferry,10.07422651,76.28059967
BS0764,Eloor Island Or Iyland Junction,10.08270417,76.29603909
BS0765,Eloor North Bus Stand Or Methanam,10.09457146,76.29167397
BS0766,Eloor Or Paatupuraikkal,10.08600448,76.29553679
BS0767,Elumbassery Stop,9.928155586,76.48042482
BS0768,Ems,10.10009668,76.27981661
BS0769,Engaloor Mi Hospital,10.50899552,76.05827053
BS0770,Enjakkal Temple Stop,9.94095779,76.33199828
BS0771,Erachi Pura,10.15973885,76.17215825
BS0772,Eramalloor Junction,9.825242335,76.31060083
BS0773,Eramanglath Or Shankara Company,10.09120181,76.29415249
BS0774,Erap Junction,10.25071851,76.45215125
BS0775,Erappaam Kuzhi Junction,9.862736721,76.52772182
BS0776,Erappumpara,10.03240517,76.43693989
BS0777,Erattupetta Pvt Stand,9.68689425,76.78062944
BS0778,Ernakulam Boat Jetty,9.973486188,76.27936244
BS0779,Ernakulam Kavala,9.757503797,76.39676085
BS0780,Ernakulam Medical Center Or Emc Bus Stop,9.999561264,76.31381929
BS0781,Ernakulam Medical Center Or Emc Or Bus Stop,9.998701377,76.31408021
BS0782,Ernakulam North Or Town Hall,9.988346845,76.28603367
BS0783,Ernakulam South Or Jose Junction,9.967060914,76.28631571
BS0784,Ernakulam Wharf,9.966832024,76.26613836
BS0785,Eroor Labour Junction,9.978085437,76.33400412
BS0786,Eroor Or Eroor North,9.985623532,76.32996498
BS0787,Eroor South,9.971829139,76.33686686
BS0788,Eroor Water Tank Or Azad Junction,9.957745705,76.34344602
BS0789,Erumalappady,10.08055434,76.57582398
BS0790,Erumalappady Canal,10.08245726,76.57348717
BS0791,Eruveli Junction,9.920258843,76.38971562
BS0792,ESI,9.986126624,76.39713407
BS0793,Esi Dispensary,9.828226251,76.46405314
BS0794,Esi Or Dispensary,10.07551378,76.31477486
BS0795,Esi Or Mudiyoorkkara,9.640840759,76.5322292
BS0796,Essan Muttam,10.20138832,76.32379476
BS0797,Estate,10.14460646,76.56287832
BS0798,Ethayi,10.51183475,76.05671494
BS0799,Ettekkar Pally,10.08154403,76.37487071
BS0800,Ettumanoor,9.671263576,76.55812257
BS0801,Ettungal Church,9.889517367,76.28539793
BS0802,Excise Kadavu stop,9.873716207,76.48612934
BS0803,Ezhaamkallu,10.4909703,76.06821773
BS0804,Ezhakkaranad,9.920192186,76.46051655
BS0805,Ezhikkara Hospital,10.09541915,76.23468249
BS0806,Ezhumuttam,9.921230635,76.75712699
BS0807,Ezhupunna Junction,9.821060418,76.29872967
BS0808,Ezhupunna Railway Station Or Gate,9.822035859,76.3027812
BS0809,Ezhupunna South Post Office Or Karimanjery,9.807409901,76.30050106
BS0810,Ezhupunna South Sndp,9.811211909,76.30044373
BS0811,Ezhupuram Stop,9.884669891,76.45359766
BS0812,fact,9.977829007,76.38421185
BS0813,Fact Ambalamedu,9.995319828,76.38740972
BS0814,Fact Club,9.984385472,76.39577657
BS0815,Fact Company,10.08914754,76.29504783
BS0816,Fact Junction,10.06952041,76.30551886
BS0817,Fact Market,10.07399088,76.30712334
BS0818,Farm Road,9.976480795,76.46877414
BS0819,Federal City Or Shapumpadi,10.21054237,76.3836172
BS0820,Federal Park,9.997792586,76.31858165
BS0821,Ferry Junction,9.721830063,76.35300542
BS0822,Ferry Stop,9.869781268,76.31548406
BS0823,Fire Station,9.98958171,76.57109612
BS0824,Fisat,10.23436702,76.40806406
BS0825,Fisheries,9.721073703,76.28734237
BS0826,Fisheries Or Shapumpadi,9.779059945,76.36081785
BS0827,Fisherman Line Or Gap,10.16419091,76.17060707
BS0828,Fort Kochi Bus Stand,9.968086947,76.24442559
BS0829,Fort Kochi Veli Bus Stop,9.952360375,76.24468353
BS0830,Ganapathithara,10.30862795,76.38752054
BS0831,Ganapathy Ambalam,9.903380913,76.32089244
BS0832,Ganapathy Temple,10.15363839,76.47787988
BS0833,Gandhi Kavala,10.20132595,76.40364527
BS0834,Gandhi Mandhiram,10.12961198,76.22849638
BS0835,Gandhi Nagar,9.977006264,76.29282397
BS0836,Gandhi Nagar Or Ksrtc Stand,9.97779132,76.28856822
BS0837,Gandhi Road,10.01987288,76.41091676
BS0838,Gandhi Square,9.943813114,76.33502516
BS0839,Gandhi Square Or Durbar Hall Bus Stop,9.967435472,76.28091394
BS0840,Gandhinagar Road Junction,9.977461773,76.29425175
BS0841,Gandhipuram,10.12272441,76.36673164
BS0842,Ganeshamangalam,10.47507299,76.07766529
BS0843,Garage Or Ksrtc Workshop,10.09224121,76.3456033
BS0844,Gas Godown,10.01054335,76.22104743
BS0845,Gasumpady,10.15287072,76.34597209
BS0846,Gate Stop,9.955890188,76.26843762
BS0847,GCDA Junction,9.966554176,76.29854507
BS0848,Geetanjali Bus Stop,9.983759761,76.31645814
BS0849,Geethanjali,10.10767521,76.51038348
BS0850,Geethanjali Or Kuruppumpady,10.1127072,76.51607255
BS0851,General Hospital,9.968916416,76.28076503
BS0852,George Eedan. Line,10.11125425,76.24862385
BS0853,Ghandakarna Kshethram,9.737034261,76.28910353
BS0854,Girls School,9.910531663,76.73599375
BS0855,Glass Factory Junction,10.05990434,76.31019922
BS0856,Godown,10.0684715,76.29847606
BS0857,Gonduparambu,9.816112849,76.2748886
BS0858,Good Shed,9.952796179,76.26842297
BS0859,Goshree Junction,9.984768682,76.24754824
BS0860,Goshree Junction Or Kalamukku,9.982105348,76.24113108
BS0861,Gothambu Road,10.18632654,76.4842253
BS0862,Gothurthu Kadavu,10.18649965,76.20233869
BS0863,Gothuruth,10.18783182,76.21686135
BS0864,Gothuruth Kadavu,10.18829341,76.20428999
BS0865,Gothuruth Or Pallipady,10.18832503,76.21717445
BS0866,Government High School,10.2136767,76.40444754
BS0867,Government High School Edappally,10.01398057,76.30225725
BS0868,Government Hospital,10.00444156,76.45645082
BS0869,Government Hospital Bus Stop,9.881019833,76.28720597
BS0870,Government Hospital Junction,9.710843534,76.68073342
BS0871,Government Hospital Mala,10.24040877,76.27384363
BS0872,Government Hospital Or Kothamangalam,10.06583785,76.6181496
BS0873,Government Polytechnic,10.14829969,76.47725757
BS0874,Government Quarters Aashupathry,9.966049679,76.24544879
BS0875,Government school,10.13600119,76.40720807
BS0876,Government School Stop,10.02368365,76.36904537
BS0877,Govt Aashupathri Padi,9.874078057,76.49562154
BS0878,Gowreeswaram,10.13344217,76.19612745
BS0879,Gtn,10.0902346,76.38446472
BS0880,Gtn Or Rajagiri Hospital,10.08928134,76.38754731
BS0881,Gulf Nagar,9.966981089,76.81214263
BS0882,Guru Mandhiram,9.549924995,76.31199583
BS0883,Gurudeva,10.16128618,76.19815312
BS0884,Guruvayoor Or Municipal Bus Stand,10.59351243,76.04420298
BS0885,H H A Stop,9.950766463,76.26845167
BS0886,Halt Bus Stop,9.937320883,76.27277008
BS0887,Harbour Bus stop,9.937780597,76.26083613
BS0888,harimatom,9.987664346,76.39261756
BS0889,harimatom ambalam,9.988073457,76.39215522
BS0890,Harimattom Ambalam,9.985780282,76.3921222
BS0891,Health Centre,10.21673806,76.44665583
BS0892,Hi Tech,10.0855151,76.56898456
BS0893,High Court Junction Bus Stop,9.984045412,76.27376646
BS0894,High School,10.00229373,76.26288467
BS0895,High School Junction,9.906894407,76.55617245
BS0896,High School Stop,9.882469575,76.57379583
BS0897,Hil,10.0775275,76.29739051
BS0898,hill palace,9.952527716,76.36070061
BS0899,Hilltop,9.954635942,76.48040748
BS0900,Hindalco Or Iac,10.07914514,76.32749921
BS0901,Hira School Stop,9.904727162,76.33158323
BS0902,Hmc,10.03507391,76.27565817
BS0903,Hmt Colony,10.06125168,76.34333097
BS0904,Hmt Colony Stop,10.06123748,76.34333331
BS0905,Hmt Junction,10.05462338,76.32186508
BS0906,Hmt Mechine Tools,10.04912277,76.34065933
BS0907,hoc,9.971275692,76.38037696
BS0908,Holy Grace Bus Stop,10.23294813,76.28053542
BS0909,Homeo,9.902978308,76.33404625
BS0910,Homeo Dispensary,9.865911554,76.41995562
BS0911,Hospital,10.01196835,76.26067812
BS0912,Hospital Bus Stop Or Chakkanattu Ambalam,9.941544709,76.25589369
BS0913,Hospital Junction,10.02310755,76.40258384
BS0914,Hospital Junction Bus Stop,10.04133826,76.21885609
BS0915,Hospital Or Arogya Kendram,10.16921554,76.43254136
BS0916,Hospital Pady,10.14829357,76.54153
BS0917,Hospital Road,10.58738365,76.02463418
BS0918,Hostel Padi,9.974360561,76.59683789
BS0919,Hyundai Stop,10.14283004,76.35297378
BS0920,I R Valavu,10.18049405,76.17215255
BS0921,I T R Junction,9.993614906,76.57345573
BS0922,Iac Quarters Or Labour,10.07144961,76.32445522
BS0923,Ice Plant,10.17704292,76.18006742
BS0924,Idc School Stop,10.57233195,76.02791327
BS0925,Idukki Junction,10.08393295,76.31438358
BS0926,Illathu Parambu,10.03160184,76.25432321
BS0927,Illathupadi Junction,9.868748704,76.30898874
BS0928,Illathupady Bus Stop,10.09938974,76.20529456
BS0929,Illichod,10.00090939,76.42853275
BS0930,Illichuvadu,9.932132031,76.25276275
BS0931,Illikkal Junction,9.882956018,76.28690158
BS0932,Illikkal Paalam,9.719254397,76.29659287
BS0933,Illikkamukkada,9.861096946,76.51814799
BS0934,Illikkappady,9.970753491,76.33758907
BS0935,Illithode,10.2018627,76.52993369
BS0936,Illithond,9.786359417,76.45383056
BS0937,Ima,9.712302976,76.70537089
BS0938,Independence Club,10.22920047,76.35981852
BS0939,India Post,9.812787481,76.35212026
BS0940,Indian Oil Stop,9.967028061,76.26241958
BS0941,Indian Oils,9.982726231,76.35254713
BS0942,Indira Junction,9.711974856,76.33738297
BS0943,Infopark,10.26933824,76.35336834
BS0944,Infopark First Gate,10.0144579,76.36418572
BS0945,Infopark Main Gate,10.01107103,76.36589974
BS0946,Infopark Second Gate Or Muslim Pally,10.00344134,76.37062378
BS0947,Injarankunnu Road Bus Stop,10.17696438,76.25287901
BS0948,Intuc,9.927115188,76.31758595
BS0949,Ire,10.0803483,76.29658557
BS0950,irep gate,9.97543138,76.38001386
BS0951,Iringol,10.12086725,76.49911756
BS0952,Irumbu Paalam,9.690479121,76.34102611
BS0953,Irumpanam Or Puthiya Road,9.958214497,76.35832372
BS0954,Irumpanam Or Puthiya Road,9.963922384,76.35216872
BS0955,Irupathanjam Kallu,10.26632176,76.17983203
BS0956,Irupatharam Kallu,10.25387631,76.18543749
BS0957,Iruppachira,9.999896698,76.44143011
BS0958,Isro,10.09012336,76.39263583
BS0959,Itc Junction,9.65418838,76.29938852
BS0960,Itc Or School,10.22334339,76.4132584
BS0961,Ithillparambu,10.15856747,76.20311184
BS0962,Ithipuzha Or Ks Managalam,9.786427082,76.39484438
BS0963,Iti Junction,10.05418387,76.32681734
BS0964,Iyattil Junction Bus Stop,9.972247735,76.28617758
BS0965,Iyyattil Junction,9.972660732,76.28659106
BS0966,Jacobic Pally,10.08687229,76.23665364
BS0967,Jai Bharath College,10.05410211,76.45340721
BS0968,Janahitha Beach,10.17020997,76.1679858
BS0969,Janakshemam,9.610024855,76.30177792
BS0970,Janatha,9.967200601,76.3141606
BS0971,Janatha Bus Stop,10.12078475,76.19930545
BS0972,Janatha Junction,10.15663841,76.18741189
BS0973,Janatha Junction Or Janatha Kaloor Bus Stop,10.001136,76.3011298
BS0974,Janatha Junction Or Janatha Vytila,9.967989155,76.31318327
BS0975,Janatha Nagar,10.23054179,76.41761147
BS0976,Janatha stop,10.05086974,76.30291713
BS0977,Jarappadi,10.14865699,76.24846784
BS0978,Jayakerala,10.04204646,76.28763558
BS0979,Jayandhi Road,10.12105862,76.26730425
BS0980,Jayanthi Junction,9.868160718,76.50373282
BS0981,Jayashree Kavala,9.860438535,76.40009289
BS0982,Jbs School Stop Or Kuttipuzha,10.15652682,76.30523778
BS0983,Jeerulipady,10.17104194,76.54974911
BS0984,Jewel Junction,9.860997274,76.59468514
BS0985,Jmp Medical Centre,9.881965427,76.48781011
BS0986,Jose Junction,9.968412649,76.28607013
BS0987,Jts Junction Koratty,10.2616082,76.35717135
BS0988,Judgemukku Bus Stop,10.03498125,76.33390815
BS0989,Jwalagiri,9.975447312,76.38138736
BS0990,Jyothi Junction,10.11309377,76.47134982
BS0991,Jyothi Padi,9.859506359,76.43891823
BS0992,K G Hospital Stop,10.19812209,76.38471637
BS0993,K T Iceplant,10.48136915,76.07430258
BS0994,Kaanakkari,9.702357629,76.54777968
BS0995,Kaanattupa,9.728396001,76.69349318
BS0996,Kaanattupara,9.728999085,76.69332856
BS0997,Kaanjiramattam Millungal Junction,9.85338401,76.40233509
BS0998,Kaanjiramattam Pally Bus Stop,9.849832874,76.40696215
BS0999,Kaanjiramattam Millungal Junction,9.853680646,76.40193377
BS1000,Kaanjoor,10.14152219,76.42902644
BS1001,Kaarapparambu,9.873809437,76.37858546
BS1002,Kaarikkodu,9.803929309,76.48366703
BS1003,Kaarpullikav Ambala Nada,10.20237362,76.45312849
BS1004,Kaarukkavu Or Maneed,9.892588282,76.46243397
BS1005,Kaarukulam Palli,10.06676785,76.43302566
BS1006,Kaarunya,9.716809724,76.2877561
BS1007,Kaathyppadi,9.95043256,76.44428646
BS1008,Kaavil Nada Bus Stop,10.10672379,76.26197801
BS1009,Kaavumpady,10.00735113,76.52346074
BS1010,Kacherikavala Or Padinjarenada,9.749821604,76.39375055
BS1011,Kacheripady,9.985239199,76.28335095
BS1012,Kacheripady Junction,9.913999742,76.2765429
BS1013,Kacheripady Or Ernakulam Kacheripady,9.986163569,76.28264628
BS1014,Kacheripady Or Kumanlangi Vazhi Bus Stop,9.915333705,76.27797519
BS1015,Kacherippady Cheranallur,10.05707231,76.28760747
BS1016,Kacherithazham,9.986412876,76.57784408
BS1017,Kadackanad School,9.989228914,76.49586925
BS1018,Kadakara Junction Or School,10.10423902,76.23084353
BS1019,Kadakkanadu,9.988420519,76.49676226
BS1020,Kadakkanadu Or Edasherry Padi,9.986783067,76.49992303
BS1021,Kadakkanadu Or Edasherry Padi,9.98682137,76.4999066
BS1022,Kadakkara Pally Junction,9.705294728,76.30279854
BS1023,Kadalikkunnu,10.06329292,76.44514607
BS1024,Kadamakkudy,10.06403381,76.24651253
BS1025,Kadamattom Church Stop,9.976816755,76.49772311
BS1026,Kadappara,10.19878222,76.50402329
BS1027,Kadathi Paalam Or Vayanashala Padi,9.984868654,76.56270236
BS1028,Kadathi Pallithazham,9.980442084,76.55395991
BS1029,Kadathu Kadavu,9.975103444,76.35456644
BS1030,Kadathututh,10.18790598,76.20868245
BS1031,Kadavaalthuruth Or Vaaniyakkadu Junction,10.13499844,76.24787009
BS1032,Kadavalthututh Or Kadathuruth,10.18775035,76.20766461
BS1033,Kadavanthara,9.97002656,76.30011967
BS1034,Kadavanthara Junction,9.963131949,76.27896394
BS1035,Kadavanthara Junction Or Vijaya Hospital,9.963654606,76.27864471
BS1036,Kadavanthara Junction Or Kathrikkadavu Bus Stop,9.967605408,76.29982851
BS1037,Kadavanthara Or Gcda Bus Stop,9.9667955,76.29863765
BS1038,Kadavanthra jun Or Vijaya  Hospital,9.963436031,76.31081976
BS1039,Kadavantra,9.975755247,76.29340181
BS1040,Kadavantra Police Station,9.970225994,76.29667978
BS1041,Kadavu,10.3036291,76.39441581
BS1042,Kadavul junction,10.12120002,76.47349962
BS1043,Kadayiripu,10.00139514,76.45816184
BS1044,Kadayiripu Aashupathri,10.00279551,76.45834833
BS1045,Kadeyekka Valavu,9.885572055,76.42528784
BS1046,Kadhalikkadu,9.923941279,76.67370184
BS1047,Kadhar Junction,9.995316555,76.22368517
BS1048,Kadukulangara,10.22136324,76.46777111
BS1049,Kadungamangalam,9.936533867,76.37529393
BS1050,Kaduthuruthy,9.765103245,76.49257593
BS1051,Kaduval,10.12257118,76.47329552
BS1052,Kaduvamuzhi,9.692240314,76.77426254
BS1053,Kaikuthiyal,10.14583715,76.49320023
BS1054,Kailasam,9.814156553,76.29967612
BS1055,Kaimari,9.792440119,76.59497612
BS1056,Kaipadamughal,10.04292769,76.33842971
BS1057,Kaipamangalam,10.34061258,76.13704678
BS1058,Kaipamangalam Board,10.34408701,76.13513679
BS1059,Kaipatoor,10.17525612,76.44617185
BS1060,Kaipra Junction,10.13491739,76.40350394
BS1061,Kaipra Register Office,10.13698694,76.40716921
BS1062,Kaipuzhamuttu,9.650334021,76.42958803
BS1063,Kairali,9.766887126,76.28179576
BS1064,Kairali Hospital,10.59774113,76.03685858
BS1065,Kairali Junction,10.17579337,76.22759408
BS1066,Kaithakaadu,9.716549856,76.2970518
BS1067,Kaitharam,10.11422105,76.24303227
BS1068,Kaitharam or School Pady,10.11648524,76.24189954
BS1069,Kaitharam or Schoolpadi,10.11640161,76.24191311
BS1070,Kaithaveli Or Manasseri Spot,9.916613445,76.25205265
BS1071,Kakkad Stop,9.894344489,76.48538347
BS1072,Kakkanad Bus Terminal,10.02100825,76.34388183
BS1073,Kakkanad Civil Station Bus Stop,10.01964855,76.34498888
BS1074,Kakkanad Distrct Co Operative Hospital,10.01799439,76.34571231
BS1075,Kakkanad Stand,10.0206325,76.34337891
BS1076,Kakkaparambil Junction,9.74916957,76.36336111
BS1077,Kakkari,9.64563527,76.29869301
BS1078,Kakkattupara Kurisu,9.959974304,76.4519438
BS1079,Kalady,10.1662196,76.43880363
BS1080,Kalady Kappela,10.29414806,76.3512442
BS1081,Kalady Private Stand,10.1670977,76.43701386
BS1082,Kalady Shiva Temple Or Pump House,10.29134448,76.34953301
BS1083,Kalady Town,10.16567095,76.43819164
BS1084,Kalady Town Towards Perumbavoor,10.16467394,76.43967427
BS1085,Kalamassery Municipal Bus Stop Or Panchayath,10.04447673,76.3174168
BS1086,Kalamassery Municipal Busstop,10.04423183,76.31913409
BS1087,Kalamassery Municipal Or Panchayath Busstop,10.04414468,76.31858692
BS1088,Kalamassery Premiere Junction,10.06482771,76.32584216
BS1089,Kalambadam Thondu,10.09890565,76.54701128
BS1090,Kalamukku Bus Stop,9.985140655,76.24068215
BS1091,Kalamuri,10.33489909,76.13926134
BS1092,Kalanmanda,10.01886613,76.42422021
BS1093,Kalappara,10.11501481,76.67529857
BS1094,Kalappura,9.510079386,76.32786014
BS1095,Kalappurapadi,10.00987076,76.49410312
BS1096,Kalarkuzhi,10.2171345,76.41086311
BS1097,Kali Kulangara,10.13219138,76.22783961
BS1098,Kallada Kuzhi Peedika,10.0127758,76.48449455
BS1099,Kallath Temple Bus Stop,9.936543565,76.3098037
BS1100,Kallelil,10.01519939,76.48352486
BS1101,Kalloorkkadu Junction,9.942758051,76.64286935
BS1102,Kallu Shappu,10.17075934,76.49247186
BS1103,Kalluiduki,9.811393727,76.56418269
BS1104,Kallumadom Ambalam,10.04699498,76.22828626
BS1105,Kallungaparamb,10.07320174,76.35732613
BS1106,Kallupalam,10.12001166,76.29602734
BS1107,Kalluthi Junction,10.29830788,76.36111377
BS1108,Kalluthi Shap,10.29939087,76.36242766
BS1109,Kaloor bus stand,9.977255398,76.26484244
BS1110,Kaloor Bus Stop Or Kaloor Private Stand,9.994145968,76.29189185
BS1111,Kaloor Church Or St Antonys Church,9.997708018,76.29561718
BS1112,Kaloor Stadium,10.00195338,76.29744792
BS1113,Kalppalandi Mukku,9.952086179,76.25761894
BS1114,Kalung,10.29366245,76.40070699
BS1115,Kalungu,10.21928821,76.44136037
BS1116,Kalunkku,9.815180471,76.44991191
BS1117,Kalyani Mukku,9.868942862,76.41985137
BS1118,Kammala Kadavu,9.968493606,76.244451
BS1119,Kamoth,9.896812739,76.32445163
BS1120,Kamratha,10.04741211,76.5042557
BS1121,Kanaal Stop,10.24455298,76.41991556
BS1122,Kanakkan Kadav,10.17287267,76.27527377
BS1123,Kanal,10.14263237,76.37469852
BS1124,Kanal Kavala Or Canal Bund Road,10.20248152,76.41323737
BS1125,Kanal Or Thottakkattukara,10.11409993,76.34212967
BS1126,Kanal Paalam,10.09705475,76.5206457
BS1127,Kanal Palam,10.14056017,76.4923558
BS1128,Kanal Vandu,10.05973014,76.43755511
BS1129,Kanalpady Or Pedikakunnath,10.23272073,76.32130081
BS1130,Kanathupadam Ambalam,10.15921923,76.19992057
BS1131,Kanayannoor Junction,9.913963626,76.39748856
BS1132,Kandakadavu,9.855391779,76.26751125
BS1133,Kandakadavu Junction,9.856053911,76.27018225
BS1134,Kandakarnanveli,10.12727571,76.24341355
BS1135,Kandamangalam Kshethram,9.704098314,76.30641938
BS1136,Kangarapady Mini Town Hall,10.03765696,76.34899507
BS1137,Kangarappady,10.04247523,76.35405913
BS1138,Kanichattupaara,10.14745745,76.5700596
BS1139,Kanichukulangara Junction,9.627650281,76.29974052
BS1140,Kanimangalam Ambalam,10.21730047,76.48257224
BS1141,Kaninadu,9.994474245,76.41455088
BS1142,Kaninadu Ambalam,9.997062783,76.41299563
BS1143,Kaniyali Padi Junction,9.871898374,76.55992354
BS1144,Kanjirakkad,10.12741676,76.47275032
BS1145,Kanjirakunnu,10.18273861,76.53035369
BS1146,Kanjiramattom Bypass Or Ever Shine,9.895294731,76.71812596
BS1147,Kanjiravalavu,9.799849878,76.47625528
BS1148,Kanjoor Junction,10.14525243,76.42611622
BS1149,Kanjoor Post Office,10.14487367,76.42400435
BS1150,Kannadi Kadavu,9.949990807,76.31828203
BS1151,Kannaikal,9.988595378,76.52232561
BS1152,Kannamali,9.935570551,76.25960972
BS1153,Kannamali Palli,9.8753361,76.26424333
BS1154,Kannamali Shap,9.880070324,76.26267663
BS1155,Kannamaly Palli,9.876121618,76.26673835
BS1156,Kannamkulangara Or Srv Station,10.00926089,76.49222749
BS1157,Kannampuzha,9.959198024,76.62081939
BS1158,Kannan Kulangara,9.938697322,76.35152108
BS1159,Kannanchery Mulam,10.14821085,76.52433213
BS1160,Kannanchira,10.13039396,76.22260596
BS1161,Kannankulangara,10.15136704,76.22335389
BS1162,Kannanpuzha,10.19924275,76.51137689
BS1163,Kannattu Kavala,9.783577302,76.30421727
BS1164,Kanndankkavu,9.941117257,76.49430115
BS1165,Kannimattom,10.0000525,76.41021484
BS1166,Kannur Kavala,10.14296916,76.54986927
BS1167,Kannuttu Kalunku Or Chembayil,9.826997876,76.34266317
BS1168,Kapaela,10.05169622,76.27216663
BS1169,Kapela,10.18859925,76.21498828
BS1170,Kapela Or Kottachal,10.17418015,76.29057745
BS1171,Kapela Or Madaplanthurthu,10.17867553,76.20862911
BS1172,Kappalanchodu,9.951437514,76.81913172
BS1173,Kappalanndimukku,9.942901034,76.29891646
BS1174,Kappattikkavu,9.981027641,76.33250518
BS1175,kappela,10.05213642,76.40038028
BS1176,Kappela Or Ponnal,10.25913118,76.52861305
BS1177,Kappelappadi,10.04755976,76.40519526
BS1178,Kappelappady,10.04623566,76.39427647
BS1179,Karakkattu Kunnu Or Charakkatukunn,10.16769431,76.35474881
BS1180,Karamattom,10.26822094,76.42222624
BS1181,Karamattom Vazhi,10.26946966,76.41497353
BS1182,Karammood Kayyanikavala,10.03886986,76.4790027
BS1183,Karamolapeediya,9.987140376,76.4700943
BS1184,Karattupallikkara Stop,10.12293091,76.48918106
BS1185,Karauthala,10.14478759,76.19156257
BS1186,Karayaparambu,10.21088372,76.38163046
BS1187,Karayogam Stop,9.959167248,76.30181058
BS1188,Karghil,10.18308714,76.53532753
BS1189,karigachira,9.952136062,76.35748498
BS1190,karikkal ambalam,10.02794965,76.50919277
BS1191,Karikkattupady,9.932078722,76.4505491
BS1192,Karikkod Ambalam,10.00557439,76.45137051
BS1193,Karikkode,10.14612159,76.45973553
BS1194,Karikod,9.896498821,76.4000318
BS1195,Karimannur Town,9.9189822,76.78186455
BS1196,Karimpadam,10.16198309,76.23312556
BS1197,Karimpadam Road,10.16131902,76.2375212
BS1198,Karimugal,9.98952565,76.39929928
BS1199,Karimukal Market Junction,9.989894765,76.40124193
BS1200,karingachira,9.952457376,76.35746352
BS1201,Karingachira Junction,9.951759412,76.3584967
BS1202,Karingalkad Kapela,10.20286743,76.44290345
BS1203,Karingamturuth,10.11719361,76.27145799
BS1204,Karingamturuth Junction,10.10864636,76.27889252
BS1205,Karingizhakkavala,10.09253722,76.63801443
BS1206,Karinkkal Chira Bhaagam,9.857419782,76.49062293
BS1207,Karinkkal Chira Or Palachodu,9.861576884,76.48968104
BS1208,Karipozhi,9.837717609,76.33187206
BS1209,Karippelip Padi,10.0933659,76.52088346
BS1210,Karipuzha,10.10440607,76.3098756
BS1211,Kariyad,10.16233084,76.36850372
BS1212,Kariyeli,10.16731659,76.56261362
BS1213,Karmelkunnu Palli,9.913451664,76.42661617
BS1214,Karothukuzhi,10.1042577,76.34781442
BS1215,Karothukuzhi Bus Stop,10.10562255,76.35085466
BS1216,Karotta Valakom,9.977979153,76.52628016
BS1217,Karottakuriz,9.901720849,76.39310654
BS1218,Karthavumpadi,10.06339942,76.50419218
BS1219,Karukappalli,10.00483236,76.29511545
BS1220,Karukappalli Jun Bus Stop,10.00687255,76.29453262
BS1221,Karukulam Junction,10.06780815,76.42999076
BS1222,Karukutty,10.23015928,76.37377154
BS1223,Karukutty Kappela,10.22700924,76.37509473
BS1224,Karuna,10.06602475,76.27950914
BS1225,Karunalayam,9.731904727,76.66407881
BS1226,Karuvapady,10.293163,76.35535647
BS1227,Karuvarakundu,10.55126419,76.03953522
BS1228,Karuvelipady,9.943054225,76.25991516
BS1229,Kasba Or Kasba Police Station,9.988690032,76.28244711
BS1230,Kasthoorba Junction,9.58640044,76.30553488
BS1231,Katambilly,10.24554375,76.4194002
BS1232,Kathrikkadavu Jun,9.984101287,76.29752508
BS1233,Kathrikkadavu Junction,9.983645283,76.29579506
BS1234,Kattady,9.619448189,76.30050696
BS1235,Kattakkara Junction,9.990224663,76.2942061
BS1236,Kattapada Junction,9.882593238,76.42984675
BS1237,Kattath,10.01362641,76.25572943
BS1238,Kattikunnu,9.83219409,76.39086925
BS1239,Kattikunnu Juma Masjid,9.826687455,76.39194559
BS1240,Kattimuttom,9.872636323,76.4265909
BS1241,Katting,10.27899264,76.42980279
BS1242,Kattiparambu,9.911225187,76.25360903
BS1243,Kattoor Junction,9.567206299,76.30871457
BS1244,Kattoor Pallivathikkal,9.564328279,76.30913802
BS1245,Kattunkal Pachaalam,10.00454963,76.27945935
BS1246,Kavana Chuvattil Padi Or Palaykkamattam,9.951846444,76.47158256
BS1247,Kavaraparambu,10.17829956,76.39808038
BS1248,Kavattupadi,10.17570964,76.35870532
BS1249,Kavil Pady,10.1059386,76.31572114
BS1250,Kavitha,10.02412095,76.49971196
BS1251,Kavukada Stop,9.908575142,76.48665748
BS1252,Kavumpady,10.16567207,76.45719888
BS1253,Kavumpuram,10.1286888,76.49660882
BS1254,Kavumthazham,9.97121127,76.42693946
BS1255,Kavungapparambu,10.05779481,76.43670666
BS1256,Kayattom Junction,10.05068425,76.39428452
BS1257,Kayyirickal Stop,9.82625242,76.48037777
BS1258,Kayyuthi Palli,10.1411573,76.49323094
BS1259,Kazhuthumuttu Junction,9.935157446,76.25583583
BS1260,Kb Hospital,10.15907217,76.35628714
BS1261,Kedangoor Or Kadungalloor Temple,10.11378151,76.33480692
BS1262,Keenpady,10.08920145,76.41971884
BS1263,Keeranpara,10.09992334,76.65026004
BS1264,Keerimukku,10.22930174,76.3708781
BS1265,Keeripilly,10.10136076,76.28238876
BS1266,Keerthi Nagar Junction Bus Stop,10.0125583,76.29327883
BS1267,Keetholi Bus Stop Or Eethoni,10.20853081,76.20415277
BS1268,Keezhambara,9.70219949,76.73259585
BS1269,Keezhambara Deepthi,9.702878786,76.73685697
BS1270,Keezhillam Shappu,10.05849358,76.5277992
BS1271,Keezhillam High School,10.05329603,76.53060129
BS1272,Keezhmad,10.11933193,76.38366138
BS1273,Keezhmad Junction,10.11983733,76.3896447
BS1274,Keezhmad Pally,10.09940289,76.39544258
BS1275,Keezhoor Rajan Kavala,9.807269773,76.48901131
BS1276,Kel Stop,9.948998765,76.38287977
BS1277,Kelamangalam,9.737575166,76.35269854
BS1278,Kelasuram,9.710565762,76.33698701
BS1279,Keleshwaram Or Panchayath Stop,10.02387477,76.25171458
BS1280,Kent Stop,10.0012605,76.37964085
BS1281,Kesari,10.1411427,76.23319794
BS1282,Keshavanpady,9.947162649,76.36638804
BS1283,Kezhakettam,9.898885208,76.71838592
BS1284,Kidachira,9.978451181,76.48931362
BS1285,Kidangoor Kapela Or Kidangoor Road,10.20125665,76.4074039
BS1286,Kidangoor Road,10.18420632,76.40442968
BS1287,Kidangur,10.21233169,76.39727399
BS1288,Kigini Mattam School Pady,9.963330504,76.46649854
BS1289,Kilikulam Junction,10.0333585,76.49874682
BS1290,Kinar,9.932502209,76.35393481
BS1291,Kinar Mukku,9.730759743,76.28646562
BS1292,Kinar Stop,10.23364346,76.26123739
BS1293,Kinfra,10.00684214,76.36701952
BS1294,Kingini Mattam Paalam,9.957203351,76.47079143
BS1295,Kingini Mattam School Padi,9.963293491,76.46660973
BS1296,Kingini Mattam School Pady,9.96342355,76.46652959
BS1297,Kingini Mattam St George,9.959194155,76.46777889
BS1298,Kinginimattom Junction,9.967644651,76.45801274
BS1299,Kinikkavala,10.16107326,76.47234833
BS1300,Kitex Or Colonypadi,10.04726071,76.42384809
BS1301,Kizhakambalam Bus Stand,10.03647442,76.40829692
BS1302,kizhake kotta,9.946775707,76.34953827
BS1303,kizhakekotta,9.944531743,76.34982862
BS1304,Kizhakkambalam,10.03666151,76.40706584
BS1305,Kizhakkambalam Bus Stand,10.03649348,76.40829174
BS1306,Kizhakkambalam Maraket,10.03744864,76.41079532
BS1307,Kizhakke Appangad,10.03892646,76.22860265
BS1308,Kizhakke Desom Bus Stop,10.12144864,76.35659474
BS1309,Kizhakke Kavala,10.08032497,76.5787126
BS1310,Kizhakke Kotta,9.944415526,76.35045364
BS1311,Kizhakke Nada,10.22709824,76.20024152
BS1312,Kizhakke Venmattom,9.974350272,76.8030117
BS1313,Kizhakkekotta Or East Fort Bus Stop Or Pazhaya,9.942008378,76.35015769
BS1314,Kizhakombu Chellaykka Padi,9.872593465,76.56595535
BS1315,Kizhmuri Kunnithazham,9.919274021,76.48159883
BS1316,Kizhmuri Stop,9.924913154,76.48201542
BS1317,Kizhupillypady,9.957169028,76.30216144
BS1318,Kmea Street,10.05354592,76.38184349
BS1319,Kmea Street Bus Stop,10.05239806,76.38229645
BS1320,Kmk,10.14539907,76.22414688
BS1321,Kmk Junction,10.14460003,76.22748035
BS1322,Kmk Junction Or Potten Theruvu,10.14506436,76.226973
BS1323,Kmp Nagar Stop,9.92064005,76.28308099
BS1324,Kochal Bus Stop,10.11208226,76.26040123
BS1325,Kochambalam,10.11376499,76.24317977
BS1326,Kochambalam Bus Stop,10.06321167,76.21313026
BS1327,Kochambalam Or Paruthyam Palli Or Nagakallunkkal,9.681411456,76.30311141
BS1328,Kochamukku,10.00128968,76.22385638
BS1329,Kochangaadi,9.800126706,76.39840227
BS1330,Kochangadi,10.17825356,76.21831942
BS1331,Kochin Refinery,9.968885611,76.37976006
BS1332,Kochu Edapady,9.711396925,76.70851216
BS1333,Kochu Palli,9.664121136,76.29945395
BS1334,Kochu Palli Bus Stop,9.933922007,76.26454737
BS1335,Kochu Pambakuda Stop,9.915875937,76.52141299
BS1336,Kochukadav,10.17744898,76.31125035
BS1337,Kochukadavantra,9.946634628,76.30353981
BS1338,Kochupally Junction,9.834829706,76.30945395
BS1339,Kochuppalli,9.882106133,76.37556553
BS1340,Kodali,10.24416301,76.47188103
BS1341,Kodampilly,10.16205433,76.55039245
BS1342,Kodamthuruth,9.803150804,76.30097558
BS1343,Kodanad,10.18295367,76.51590982
BS1344,Kodathy Padi,10.59168484,76.02666328
BS1345,Kodathy Stop,9.9840825,76.47301668
BS1346,Kodukkuthimala Bus Stop,10.08146468,76.3644088
BS1347,Kodungallur Private Stand,10.23195679,76.19569094
BS1348,Kodussery,10.19895453,76.34771999
BS1349,Kodussery Junction,10.19453992,76.34775034
BS1350,Koduvelippady Kappela,10.1575075,76.46947266
BS1351,Kokkers,9.959107474,76.24258871
BS1352,Kokkunnu,10.23668953,76.4216623
BS1353,Kokkunnu Kinar Or Irattakinar,10.2341542,76.42034155
BS1354,Kolamkudi,10.02201255,76.46511735
BS1355,Kolancherry,9.982282414,76.47045771
BS1356,Kolanchery Kavala,10.1134025,76.47566884
BS1357,Kolanippadi Bus Stop,9.932799382,76.37899854
BS1358,Kolarikkal Kurish Palli,10.03773,76.27208103
BS1359,Kolencherry Kavala,10.18884238,76.44777045
BS1360,Kolenchery,9.980940142,76.4732397
BS1361,Kolenchery College Stop,9.979651362,76.47169734
BS1362,Kolenchery Junction Or Susan Mable Thomas Smarakam,9.979626466,76.47324158
BS1363,Kolenchery Medical College Junction,9.979307739,76.47628614
BS1364,Kolenchery Private Bus Stand,9.98117956,76.47360373
BS1365,Kolenchery Stand,9.982058254,76.47274573
BS1366,Kollakkood Kavala,10.23081245,76.46998681
BS1367,Kollakode Junction,10.23248389,76.46902916
BS1368,Kollam Padi,9.869771347,76.54383297
BS1369,kollampadi,9.957525718,76.36504579
BS1370,Kollampady,9.956554054,76.36564121
BS1371,Kollan Padi,9.8510566,76.43598241
BS1372,Kollapally,9.764414299,76.69960795
BS1373,Kollara,10.15623309,76.30838578
BS1374,Kollelithara Tempile / Vayanashala,10.08113926,76.22006262
BS1375,Kollikkal,9.878703288,76.49852361
BS1376,Kolottimoola,10.04717288,76.36697815
BS1377,Kombanadu,10.16564415,76.55067102
BS1378,Kombanamury,9.8623625,76.323656
BS1379,Kombichal,10.30638038,76.37574737
BS1380,Kommady Junction,9.516595694,76.32779109
BS1381,Kondotty,10.12815784,76.37268161
BS1382,Kongini Mukku,9.794982776,76.46010616
BS1383,Kongorpilly,10.10059456,76.27767605
BS1384,Konnankulangara,10.09743387,76.25259115
BS1385,Konoor,10.27148561,76.36634567
BS1386,Konoor Old Ration Kada,10.27148131,76.36225514
BS1387,Konthuruthy,9.941509058,76.30149613
BS1388,Koodalappad Kappela,10.16448042,76.47504096
BS1389,Koodalappad Pally,10.16113164,76.47499542
BS1390,Koomvalli Kavala,9.914381443,76.43071229
BS1391,Koonamaavu Bus Stop,10.06799153,76.34573807
BS1392,Koonamthai,10.03347687,76.31304632
BS1393,Koorampadam,10.04865991,76.2730646
BS1394,Koothattukulam Private Bus Stand,9.880887452,76.34822481
BS1395,Koothukad,10.16927116,76.22344399
BS1396,Koothukad Pally,10.17308916,76.22322215
BS1397,Kootumadam,10.09946125,76.51915427
BS1398,Kootummel,9.791363822,76.40008042
BS1399,Koovapadam,9.952051454,76.25231604
BS1400,Koovappady,10.16254989,76.48682405
BS1401,Koovely,9.932157857,76.66288398
BS1402,Koozhur,10.0490381,76.52470961
BS1403,Kopprakkalam,10.34821892,76.13297803
BS1404,Koratty,10.26860331,76.34931212
BS1405,Koratty Or Police Station,10.26426951,76.35271355
BS1406,Korthussery,9.575183588,76.3069688
BS1407,Kothad Ferry Or Kothad Palli,10.05746895,76.2717978
BS1408,Kothad Post office Or Vayanashala,10.05566248,76.27180213
BS1409,Kothakulam,10.12589876,76.2374926
BS1410,Kothakulangara Or Durga Temple,10.20269042,76.38247986
BS1411,Kothamangalam Kavala,10.20385673,76.53281114
BS1412,Kothamangalam KSRTC Stand,10.06061854,76.62938183
BS1413,Kothamangalam Stand,10.06415663,76.62071622
BS1414,Kothanelloor,9.722688075,76.52387102
BS1415,Kothaparambu,10.24412785,76.1903334
BS1416,Kothukaatipeediya,9.993998302,76.46566861
BS1417,Kothungal Pally,10.16712416,76.57413631
BS1418,Kottakavala,9.924416914,76.79714913
BS1419,Kottamam,10.17807423,76.45977131
BS1420,Kottamuri,10.24014448,76.27898946
BS1421,Kottamury,10.27926755,76.34397188
BS1422,Kottankulam,10.3067709,76.15115664
BS1423,Kottapad Muk Palli,10.05633038,76.30230592
BS1424,Kottappady,10.11724101,76.58325277
BS1425,Kottappady Or Chenganal Junction,10.11737876,76.59010775
BS1426,Kottappuram Bus Stop,10.20272835,76.20026552
BS1427,Kottapuram,9.936645935,76.49790346
BS1428,Kottaram Kavala,9.703538259,76.31322152
BS1429,Kottaramattom Pvt Stand,9.708900002,76.67294468
BS1430,Kottatal,10.1702525,76.24141797
BS1431,Kottattal,10.17023798,76.24148234
BS1432,Kottattal Bhagavathi Temple,10.17022546,76.24082633
BS1433,Kottayathupara Junction,9.93262291,76.3750875
BS1434,Kottayil Kovilakam,10.1686047,76.25013467
BS1435,Kottoor Palli Stop,9.970697505,76.47179368
BS1436,Kottuvally,10.09167024,76.25459591
BS1437,Kottuvally Kavu,10.10719656,76.25783784
BS1438,Kottuvally North Bus Stop Or Ayyapante Ambalam,10.11108169,76.24399297
BS1439,Kottuvally Or Sree Narayana Temple,10.09430877,76.2537707
BS1440,Kottuvally Pally Or Sebastians Church,10.10375168,76.24940075
BS1441,Kottuvally Pally Or Sebastians Church,10.1038989,76.2493632
BS1442,Kottuvally South,10.08795886,76.24223033
BS1443,Kotuvilly Kad,10.18236605,76.18946585
BS1444,Koventha Bus Stop,9.908735763,76.28189481
BS1445,Kovilakampady,10.30855302,76.37580229
BS1446,Kovilakathum Kadavu Junction,10.16088255,76.18439643
BS1447,Koya Bazar,10.59004407,76.03945385
BS1448,Koya Bazar Bus Stop,9.893219367,76.28467357
BS1449,Koylonia,10.09059665,76.47658471
BS1450,Kozhikavala,9.980306413,76.79759434
BS1451,Kozhikkadanpady,10.14120393,76.41661837
BS1452,Kozhikkulam,10.2532375,76.42727325
BS1453,Kozhikottukulangara,10.14611307,76.55943336
BS1454,Kozhikulam,10.25333565,76.42731369
BS1455,Kozhikutty Kavala,9.905102721,76.44946863
BS1456,Kozhikutty Stop,9.906833339,76.45112094
BS1457,KPCC Junction Or Maharajas College Ground,9.972086031,76.28532545
BS1458,Kpm High School,10.08513903,76.20908817
BS1459,Kripa,10.09408009,76.38662458
BS1460,Krishi Bhavan Or Pallipuram,9.769038886,76.36213653
BS1461,Krishna Pilla,9.79189151,76.38549982
BS1462,Krishnan Kotta,10.21084627,76.22124733
BS1463,Kseb,10.1837025,76.24787109
BS1464,Kseb Junction,10.15703185,76.30248471
BS1465,Kseb Stop,10.15406166,76.35003019
BS1466,Ksrtc,10.19659313,76.38698091
BS1467,Ksrtc Bus Stand,9.68619137,76.3427227
BS1468,Ksrtc Bus Stand Stop,9.896598618,76.71675679
BS1469,Ksrtc Bus Stop,10.59566448,76.0369943
BS1470,Ksrtc Junction,9.89328718,76.71500166
BS1471,Ksrtc Regional Workshop Aluva,10.09306839,76.34433896
BS1472,Ksrtc Stand,10.14499585,76.2323225
BS1473,Ksrtc Stand Aluva,10.10678152,76.35583348
BS1474,Ksrtc Stand Stop,9.715876122,76.68897956
BS1475,Kudakuthi,9.947465398,76.44315893
BS1476,Kudambanattu Kadavu,9.942065663,76.47238927
BS1477,Kudilpeedika,10.15589057,76.31615177
BS1478,Kudiyakulangar,10.12764648,76.22253747
BS1479,Kudumbhi Seva Sangam Stop,10.12494773,76.26436878
BS1480,Kudumboru Ambalam,9.903851876,76.43098485
BS1481,Kudungasserry Stop,10.05966596,76.21401942
BS1482,Kulangara Padi,9.866359037,76.53735342
BS1483,Kulikkadavu junction Or Plaza Bus Stop,10.08428583,76.36520438
BS1484,Kulikkadavu junction Or Plaza Bus Stop,10.08430457,76.3652329
BS1485,Kuliranthode,10.26178762,76.48625716
BS1486,Kumaramangalam,10.15696139,76.23389969
BS1487,Kumaranasan Bus Stop,9.978336029,76.2966788
BS1488,Kumaranellor,9.618127472,76.53300797
BS1489,Kumaranpeedika,10.03125816,76.47911254
BS1490,Kumarapuram,9.836633205,76.29648844
BS1491,Kumbalam Centre,9.901875323,76.30728014
BS1492,Kumbalam Ferry,9.908502078,76.29489543
BS1493,Kumbalam Grama Panchayath,9.905145881,76.32084991
BS1494,Kumbalam High School,9.897489152,76.30852334
BS1495,Kumbalam North,9.919804677,76.30510798
BS1496,Kumbalam South,9.890134778,76.31185065
BS1497,Kumbalanghi Bus Stand,9.851375661,76.29406045
BS1498,Kumbalanghi Ferry,9.84826657,76.29487078
BS1499,Kumbalanghi Panchayat Bus Stop,9.888027476,76.28594427
BS1500,Kumbalanghi Vazhi Bus Stop,9.913799276,76.27792624
BS1501,Kumbhappilly,9.940019951,76.40576778
BS1502,Kumbidi,10.22327222,76.32341841
BS1503,Kumblanghi South Or Thekke Bajanamadam,9.853874018,76.29391822
BS1504,Kummanod,10.03893706,76.45016371
BS1505,Kummanodu Pallypady,10.04128655,76.46124062
BS1506,Kunatheri Valav,10.16517465,76.24483721
BS1507,Kuncharam,9.810794482,76.35276369
BS1508,Kundannoor Junction,9.938448821,76.31813492
BS1509,Kundekav Or Ezhikkara Panjayath,10.11939563,76.22591634
BS1510,Kundekev Or Ezhikkara Panjayath,10.1192174,76.22600217
BS1511,Kunjamkuzhi,10.25591458,76.45218125
BS1512,Kunjattukara,10.06536698,76.38994587
BS1513,Kunjikkapadi,9.979273816,76.53584568
BS1514,Kunjithai,10.16639196,76.18748071
BS1515,Kunnakaal Road,10.00434662,76.53383944
BS1516,Kunnakurudy Kurisu Junction,10.03781949,76.5164893
BS1517,Kunnam,9.917903711,76.74569657
BS1518,Kunnapilli Shapumpadi,9.818084571,76.49185955
BS1519,Kunnappilly Junction,10.29785199,76.39385718
BS1520,Kunnappilly Kunjambalam,10.29585701,76.39714208
BS1521,Kunnappilly School,10.30146868,76.3939862
BS1522,Kunnappilly Vetinary Hospital,10.3004626,76.39343922
BS1523,Kunnatholi,10.03489712,76.52956394
BS1524,Kunnilangadi,10.20299567,76.47280361
BS1525,Kunnukara Junction,10.155144,76.2951222
BS1526,Kunnukara Junction Or Theatre Junction,10.15469518,76.29366818
BS1527,Kunnumpuram,10.11312131,76.38785889
BS1528,Kunnumpuram Junction,9.964034341,76.24563377
BS1529,Kunnumpuram Junction Bus Stop,10.04340805,76.29884348
BS1530,Kunnuparambu,9.811232695,76.34252199
BS1531,Kuppethazham Junction,9.939221075,76.41841484
BS1532,Kuppikavala,9.689902734,76.34566441
BS1533,Kurekkadu,9.926892131,76.37394235
BS1534,Kuriappilly South Bus Stop,10.1808822,76.20527389
BS1535,Kurichilakkode Canal,10.17765458,76.50807448
BS1536,Kurichilakode,10.1762713,76.50461369
BS1537,Kurilikkan Kavala,10.19833968,76.50710178
BS1538,Kurinji,9.955848728,76.43412301
BS1539,Kurish Palli,10.00012943,76.4814856
BS1540,Kurishingal,10.02653292,76.25537645
BS1541,Kurishintte Vazhi,9.704738296,76.28912015
BS1542,Kurishu Palli Junction,9.876141794,76.48708236
BS1543,Kurishu Pally,10.07953983,76.23923158
BS1544,Kurishu Stop,9.997749007,76.382512
BS1545,Kurishu Vara,10.04788683,76.40645994
BS1546,Kurishumthotti,10.08990376,76.47915525
BS1547,Kurishumudy,10.20320718,76.50466784
BS1548,Kurishumuttam,10.06477299,76.27842503
BS1549,Kurishupalli,10.18293313,76.53358703
BS1550,Kurishupally,10.02209458,76.50692752
BS1551,Kurisu,10.21557861,76.35989087
BS1552,Kurisu Junction,9.901180058,76.52259928
BS1553,Kurisumudy View Point,10.22717511,76.50310981
BS1554,Kurisupally,9.814515931,76.428761
BS1555,Kuriyam Mala Junction,9.988275284,76.56858655
BS1556,Kuriz Or Companypady,10.08133967,76.48469097
BS1557,Kuriz Stop,10.01626345,76.36015593
BS1558,Kurlad,10.04266853,76.37880057
BS1559,Kurumaseri,10.17506851,76.33037573
BS1560,Kurumaseri Junction,10.17867519,76.33026192
BS1561,Kurumbakavu Junction,10.16400315,76.34658543
BS1562,Kurumbaturuth Ferry,10.18304118,76.22494486
BS1563,Kuruppam Pady Pally Kavala,10.11224906,76.52173202
BS1564,Kuruppampady,10.10917957,76.51921705
BS1565,Kuruppampady Bus Stand,10.11097183,76.51910741
BS1566,Kuruppanthara,9.739800761,76.51644737
BS1567,Kurupumpady,10.11228043,76.51806372
BS1568,Kusumagiri,10.01587465,76.35776603
BS1569,Kuthappady,9.983105974,76.31269754
BS1570,Kuthiyathod Kizhake Pally,10.17253184,76.29629706
BS1571,Kuthiyathodu,9.796613343,76.3158232
BS1572,Kuttamaserry,10.1196927,76.38957733
BS1573,Kuttamasserry,10.11906781,76.39147493
BS1574,Kuttial,10.15622098,76.31118292
BS1575,Kuttikkadu,9.68762925,76.32502956
BS1576,Kuttikkattupady,10.03838184,76.53094808
BS1577,Kuttipaara,10.24739217,76.45067558
BS1578,Kuzhikaatumoola Or Kuzhikaatumoola Pally,10.01546789,76.35449877
BS1579,Kuzhikkadu,9.977922926,76.38505521
BS1580,Kuzhikkaranpeedika Or Thabore,10.25604981,76.4268945
BS1581,Kuzhikkattukara,10.0641374,76.36356607
BS1582,Kuzhikkattumoola Junction Or Pallimol,10.01556826,76.35657049
BS1583,Kuzhipanam,10.09078189,76.23537121
BS1584,Kuzhivelipady,10.05107983,76.3714284
BS1585,Kuzhiyambaadam,10.19267485,76.44989274
BS1586,Kuzhupally North Bus Stop,10.10253437,76.20434707
BS1587,Kuzhupally Or Edavanakad,10.10421075,76.20389214
BS1588,Kuzhupilly Kavu,9.943582727,76.48618409
BS1589,Kuzhupilly Palli Aashupathry Or Medical Trust Hospital Stop,10.11523867,76.20110474
BS1590,Kuzhupilly Road,10.03260261,76.5092362
BS1591,Kwa Office,9.966744198,76.43950076
BS1592,L F Convent,10.59826033,76.03220959
BS1593,L F Hospital Stop,10.19230553,76.38856711
BS1594,L P School Stop,10.15498735,76.27986849
BS1595,Labour Junction,10.1818947,76.2048209
BS1596,Lagi Theatre,9.804602081,76.27686149
BS1597,Lakkippady Or Evm Stop,10.11105948,76.47542441
BS1598,Lakshadweep Office,9.965761889,76.26394905
BS1599,Lakshadweep Wharf,9.9487325,76.26845709
BS1600,Lakshore,9.916921747,76.31699237
BS1601,Lallam Bridge Or Kunnamma Tower,9.713533878,76.6875538
BS1602,Latha Stand,9.979756837,76.58413045
BS1603,Lavanya,10.01649132,76.35235571
BS1604,Leksham Kavala,10.00439047,76.54878117
BS1605,lenin Center,10.00111225,76.31718992
BS1606,Link Road Stop,9.758067319,76.39975806
BS1607,Lisiam,9.800271553,76.35376454
BS1608,Lisie Park,10.13486105,76.438915
BS1609,Lissie Hospital,9.991381158,76.28829891
BS1610,Lissie Junction Or Manappatti Parambu,9.992534666,76.28978653
BS1611,Little Flower South Kalamassery Or Cusat,10.04903325,76.31902611
BS1612,Livipuram,9.99980948,76.26349924
BS1613,lodge,10.06290042,76.30134467
BS1614,Lourde Hospital,10.00655443,76.27825865
BS1615,Lp School,10.0099813,76.52356988
BS1616,Lp School Akanad,10.14835961,76.50728981
BS1617,LP School Pangod,9.986580308,76.44584547
BS1618,Maadapalli,9.698750058,76.41929697
BS1619,Maalikapady,9.839389376,76.29616215
BS1620,Maalikathara,9.774063912,76.2972353
BS1621,Maaliyekathazham,9.935716503,76.45188198
BS1622,Maamoonju Mukku,9.900357922,76.33563857
BS1623,Maapurackal,9.914109484,76.55581717
BS1624,Maaraam Veedu,9.723225603,76.41567743
BS1625,Maarekkattu Kavala,9.926143971,76.52211656
BS1626,Maathrika,9.735262134,76.28612572
BS1627,Maavin Chuvadu,10.08160488,76.52129114
BS1628,Maavinchodu,10.03662277,76.44913812
BS1629,Maavinchuvadu,10.03386538,76.40684342
BS1630,Maavinchuvadu Or Akshara Nagar,10.06924127,76.49071614
BS1631,Machamthuruthu,10.16687939,76.19777167
BS1632,Madakkathanam,9.918744189,76.68535614
BS1633,Madam,10.08567939,76.37599945
BS1634,Madam Bus Stop Or Pullattukavu,9.885222375,76.37441189
BS1635,Madam Junction,10.01998984,76.30050109
BS1636,Madam Stop,10.14377194,76.42750618
BS1637,Madama Pally,10.23807405,76.19315889
BS1638,Madamby,10.10167574,76.27355491
BS1639,Madathekkavu ambalam,9.922375234,76.50413496
BS1640,Madathiparambil,9.989604891,76.32927059
BS1641,Madathippady,10.08820151,76.44170435
BS1642,Madavana,9.911394812,76.31672171
BS1643,Madaykkal Junction,9.687683318,76.31793504
BS1644,Madras Kavala,10.15979862,76.4852407
BS1645,Madrasa Stop,10.0403625,76.37818165
BS1646,Madurima,10.18588065,76.50144922
BS1647,Mafathippadi,10.08440309,76.44238584
BS1648,Maharaja,10.59247057,76.03858069
BS1649,Maharajas College Ground,9.973051405,76.28503314
BS1650,Mahilapadi,10.12357603,76.23882227
BS1651,Mahilappady,10.12501288,76.24173552
BS1652,Mahilasamajam Stop,9.861024984,76.28880842
BS1653,Mahilayam,10.11618702,76.37808686
BS1654,Mailickal,9.776327013,76.69048073
BS1655,Mailickal Palam,9.779911488,76.6848333
BS1656,Makaliyam,9.962840806,76.3577303
BS1657,Makkanai,10.14959742,76.25489342
BS1658,Makkekavala,9.77437686,76.36139974
BS1659,Mala,10.23836613,76.26246088
BS1660,Mala Junction,10.30776591,76.33726339
BS1661,Mala Private Stand,10.24021198,76.26482187
BS1662,Malakhappady,9.819130715,76.2740885
BS1663,Malancharakk,10.22608291,76.41418628
BS1664,Malankara Pally,9.983947513,76.46205655
BS1665,Malapallipuram Or Chenthuruthy,10.22625527,76.25176195
BS1666,Malathy Road,10.12317231,76.26565939
BS1667,Malattu Bus Stop,9.865020267,76.29164976
BS1668,Malavana,10.17110813,76.25678295
BS1669,Malayan Kaadu,10.10746854,76.38645692
BS1670,Malayattoor Kurishumudy Or Adivaram,10.20272933,76.50240162
BS1671,Malayattoor Pally,10.18482243,76.50585597
BS1672,Malayil Malil,10.10104332,76.54854488
BS1673,Malayil pally,10.07463773,76.37960761
BS1674,Malayinkeezhu,10.06872405,76.62880588
BS1675,Maliekalpad,10.05369097,76.38553809
BS1676,Malikapparambu,9.798047786,76.27823824
BS1677,Malikkapady,10.0524005,76.38673549
BS1678,Malippuram Government Hospital,10.01909655,76.22559496
BS1679,Malippuram Junction,10.02072965,76.22486814
BS1680,Maliyakapady,10.05043249,76.38637086
BS1681,Maliyakkppady,9.970873434,76.80694878
BS1682,Maliyamkara,10.17499427,76.18172737
BS1683,Maliyamkara College,10.18072076,76.18181052
BS1684,Maliyamkara Post Ofice,10.18175035,76.18489103
BS1685,Maliyekkappady Thaikavu,10.05270366,76.38463514
BS1686,Mallu Junction,10.19276526,76.34293832
BS1687,Malutty,10.05354339,76.27168644
BS1688,Mamala,9.947572072,76.37688544
BS1689,Mamala Kavala,9.883093807,76.4683442
BS1690,Mamangalam,10.0092392,76.30367327
BS1691,Mambra,10.22746448,76.35014775
BS1692,Mambra Junction,10.23374933,76.34194818
BS1693,Mambra Kadav,10.23335097,76.33865671
BS1694,Mambra Kavala,10.21739009,76.35034118
BS1695,Mambra Palam,10.23732126,76.3382525
BS1696,Mambra Pally,10.23003679,76.3498319
BS1697,Mambra School,10.23467887,76.34259091
BS1698,Mammalassey Stop,9.904454982,76.4863492
BS1699,Mammalassey Stop Or Nalambalam,9.91741051,76.47968477
BS1700,Mammanji Mukku,9.936324059,76.29732358
BS1701,Mammiyoor,10.60214435,76.03509761
BS1702,Manachery,9.921542569,76.25055903
BS1703,Manackappady,10.16738089,76.41814823
BS1704,Manakapadi Stop,9.825485303,76.48445364
BS1705,Manakka Padi Beverages,9.825472152,76.48786563
BS1706,Manakkadavu,10.03064577,76.37778402
BS1707,Manakkadavu Toll,10.02938936,76.38556044
BS1708,Manakkadu Junction,9.895804197,76.70749036
BS1709,Manakkalkkadavu,9.820693947,76.44636435
BS1710,Manakkapadi Stop,10.02345589,76.46212086
BS1711,Manakkapady,9.969606853,76.35639728
BS1712,Manakkatazham,10.02757149,76.46084463
BS1713,Manakyapady,10.08615812,76.31385149
BS1714,Manalikkadu,10.20493199,76.24699559
BS1715,Manalimukku,10.06072537,76.36274854
BS1716,Manapattiparambu,9.993237045,76.2888845
BS1717,Manattuparambu Bus Stop,10.05285148,76.21538831
BS1718,Manchanadu,10.01392835,76.51290736
BS1719,Mandapam,9.703689985,76.33885315
BS1720,Maneedu Or Anamunthi,9.905616647,76.45774422
BS1721,Mangalathunada Kurish,10.01642279,76.50050079
BS1722,Mangalathunada Or Mangalathu Kalvala,10.01663925,76.502808
BS1723,Mangalathuthazham,9.852065353,76.60443805
BS1724,Mangalathuthazham Amabalm,9.854850458,76.60134172
BS1725,Mangatoor,9.9948925,76.47815178
BS1726,Mangatoor L P School Stop,9.991793632,76.47262918
BS1727,Mangattukara,10.2159541,76.37187203
BS1728,Mangattukavala,9.902337735,76.7249077
BS1729,Mangottupadi School,10.56161861,76.03320898
BS1730,Mani Bazar,10.17134368,76.17735541
BS1731,Mani Bazar Or Kacheripady,10.17136239,76.17738919
BS1732,Manikamangalam,10.18486709,76.44641038
BS1733,Manikunnepedika,9.925276607,76.76145535
BS1734,Manimalakunnu,9.886466867,76.56576953
BS1735,Manjakkad,10.04666664,76.23197819
BS1736,Manjali,10.15335402,76.27005279
BS1737,Manjaly,10.15271495,76.27036259
BS1738,Manjapra,10.21498993,76.44925008
BS1739,Manjapra Or Pullathan Kavla,10.21248191,76.45349093
BS1740,Manjapraa,10.21428838,76.45230171
BS1741,Manjikad,10.24521438,76.42444432
BS1742,Manjoor,9.728978923,76.51928002
BS1743,Manjummal Pally,10.05999508,76.30190929
BS1744,Manjummel Kavala,10.05806377,76.2906762
BS1745,Manjummel Kavala Or Thykkavu,10.05802662,76.2905252
BS1746,Mankayi Kavala,9.910807016,76.36497388
BS1747,Mankuzhy,10.06668502,76.43768677
BS1748,Mannaar Parambu,9.725113252,76.28683677
BS1749,Mannamkavala,10.14917829,76.2524286
BS1750,Mannanal Junction,9.772110012,76.61980902
BS1751,Mannancherykunnu Stop,10.196736,76.25160323
BS1752,Mannapuram,9.782435528,76.36020359
BS1753,Mannar Junction,9.777855638,76.46670133
BS1754,Mannathoor,9.908614492,76.5580889
BS1755,Mannoor,10.04489718,76.53405686
BS1756,Mannu Vazhi,9.674253492,76.30412834
BS1757,Manorama Agency Or Millu Pady,10.07376593,76.26895485
BS1758,Manorama Junction,9.691130516,76.33709715
BS1759,Manorama Junction Or Panampilly Nagar,9.965834545,76.29493403
BS1760,Mar Augan School,10.18251405,76.5179866
BS1761,Maradu Kottaram Stop Or Maradu Junction Stop,9.938620357,76.32766706
BS1762,Marakkar Road,10.11645391,76.48602423
BS1763,Marampally Or Chalakkal,10.11623442,76.40705828
BS1764,Marampilly,10.11244884,76.41953619
BS1765,Marangad,9.790599305,76.67593041
BS1766,Marangad Ramapuram Road,9.793655758,76.67323882
BS1767,Marangad School,9.785725975,76.68097464
BS1768,Marankulangara,9.975449536,76.3353981
BS1769,Marapparambu Stop,10.05818387,76.28468318
BS1770,Mararikulam Beach Junction,9.601864739,76.30274683
BS1771,Mararikulam Palli,9.598095847,76.30328107
BS1772,Marble Kavala Or Marble Junction,10.09205612,76.46963761
BS1773,Marian Nagar,10.22921491,76.36725081
BS1774,Maritime University Stop,9.928366761,76.28812532
BS1775,Mariyapady,10.12009317,76.3156537
BS1776,Mariyapuram Kappela,10.21769922,76.44380256
BS1777,market,9.946303799,76.34944707
BS1778,Market Junction,9.945550528,76.35056019
BS1779,Market Junction Aluva,10.11500781,76.35224285
BS1780,Market Road,9.898004836,76.71514863
BS1781,Marottichodu,10.08008562,76.44049405
BS1782,Marottikavu,10.07461265,76.52396014
BS1783,Marotty Chod,10.17590673,76.42249821
BS1784,Marottychola Or Marottychod,10.22949758,76.36543171
BS1785,Marunnukada Bus Stop,9.922917614,76.27289186
BS1786,Maruthy Junction,9.854757049,76.59763156
BS1787,Maruvakkadu School,9.837101929,76.26999761
BS1788,Marver,10.1083643,76.36922199
BS1789,Mary Giri,9.703160163,76.72031822
BS1790,Mary Matha Nagar,10.1948618,76.42685389
BS1791,Match Factory,10.1227906,76.44794975
BS1792,Matha Madhurya Bus Stop Or Pump Junction,10.1074935,76.36037019
BS1793,Matha Nagar Stop,10.22363114,76.35031996
BS1794,Mathai Kavala,10.1577825,76.47487891
BS1795,Mathaipady Or Hospital Junction,10.16488637,76.43669201
BS1796,Mathanga Kurishu,10.06011552,76.41561484
BS1797,Mathil Moola,10.28515151,76.17019057
BS1798,Mathilakam,10.28849791,76.16885638
BS1799,Mathilakam Police Station,10.29020024,76.16771512
BS1800,Mathoor Junction,9.973028077,76.33647555
BS1801,Mathoor Or Eroor South,9.971899144,76.33680651
BS1802,Mathrubhumi,9.995723516,76.29571745
BS1803,Mathrubhumi Junction,9.997021106,76.29473353
BS1804,Mattancherry,9.958606628,76.2599504
BS1805,Mattancherry Warf Or Harbour Treminal Railway Bus Stop,9.96045726,76.26714167
BS1806,Mattancherry Warf Or Harbour Treminal Railway Busstop,9.960531229,76.2671001
BS1807,Mattanchery Government Hospital,9.959315861,76.25974922
BS1808,Mattiyambalam  Us Stop,9.905527982,76.28103888
BS1809,Mattummel Junction,9.943206618,76.29462235
BS1810,Mattur College Bus Stop,10.17067834,76.4292303
BS1811,Mattur Junction,10.17072217,76.42939023
BS1812,Mavelikavala,10.14694105,76.47494053
BS1813,Mavelipuram Junction,10.02313792,76.34107499
BS1814,Mavinchod,10.1237658,76.51390593
BS1815,Mavinchuvadu,10.11200301,76.46114061
BS1816,Mavinchuvadu Or Orani Mukku,10.14987072,76.25892766
BS1817,Mavumchuvadu,10.02330221,76.4775145
BS1818,Mayiladumkunnu,10.03655184,76.41985215
BS1819,Mazhuvannoor Road,10.01706613,76.48120787
BS1820,Mazhuvanoor Or Pallithazham,10.00302415,76.48667541
BS1821,Mechirapad,9.990872505,76.39322206
BS1822,Medhy Paara,9.94736718,76.49761379
BS1823,Medical College,10.05481288,76.35513273
BS1824,Medical College Junction,9.633566882,76.52425548
BS1825,Medical College Or Kinfra,10.0537124,76.35342632
BS1826,Medical College Stop,9.982409905,76.47314906
BS1827,Medical Trust Or Pallimukku,9.964912832,76.28684961
BS1828,Medicare Or T K S Puram,10.20619151,76.20117302
BS1829,Meempara,9.958431353,76.44274754
BS1830,Meempara Post Office,9.956941706,76.44472802
BS1831,Meenpara,10.16532319,76.53079603
BS1832,Mekkadambu Pallithazham Junction,9.976844938,76.53332048
BS1833,Mekkadambu Panchayath,9.979874437,76.54078559
BS1834,Mekkalady,10.17706976,76.455284
BS1835,Mekkappala Junction,10.12067242,76.57491741
BS1836,Meladoor Church,10.23185011,76.29989765
BS1837,Meladoor Shappum Padi Bus Stop,10.23177691,76.30731778
BS1838,Melambara,9.703805953,76.74460167
BS1839,Melambara Ambalam,9.703192261,76.74994497
BS1840,Meloor Pallinada,10.29473267,76.36106751
BS1841,Meloor Panchayath,10.29362287,76.35313555
BS1842,Member Padi,10.00083853,76.37861174
BS1843,Memugham,9.898500767,76.4515384
BS1844,Memugham Ambalam,9.894319173,76.45717621
BS1845,Menaka Or Marine Drive Bus Stop,9.97797946,76.27697265
BS1846,Menon Kavala,10.18193978,76.51060235
BS1847,Meprathupadi,10.06874014,76.46325957
BS1848,Mercy Hospital,9.797159706,76.47224026
BS1849,Meri Giri,10.22812382,76.44966539
BS1850,Mes,10.08882123,76.40521082
BS1851,Mes College,10.11225383,76.41374931
BS1852,Mestry Pady,10.09733697,76.26524495
BS1853,Metropolitan Club,10.12660537,76.22968566
BS1854,Mh Kavala Or Thaikavu Junction,10.09579245,76.44856446
BS1855,Microwave Junction,10.00243389,76.29562488
BS1856,Millennium,9.697698131,76.28998925
BS1857,Millum Padi,10.02057803,76.49079854
BS1858,Millumpadi,10.02520902,76.36517229
BS1859,Millumpadi Or Panikarambalam,10.07894472,76.52335948
BS1860,Millumpadi Or Panikarambalam,10.07888947,76.52336471
BS1861,Millumpady,10.1369278,76.52387059
BS1862,Millumpady Stop,9.889898069,76.4870317
BS1863,Millumppadi,10.18269742,76.42754595
BS1864,Millupadi,10.09867639,76.31808023
BS1865,Millupadi Bus Stop Or Valluvalli,10.12213393,76.25458625
BS1866,Millupady,10.10296461,76.29803989
BS1867,Milma,10.00054821,76.57137991
BS1868,Milma Junction,10.06255345,76.42416952
BS1869,Milma Soceity,9.946165595,76.46381864
BS1870,Mimmumpady,10.07484558,76.45459699
BS1871,Mini Civil Station,10.14896306,76.23073919
BS1872,Mini Civil Station Or Bhajanamadom,10.11749017,76.48005202
BS1873,Minikkavala,10.0727692,76.43925873
BS1874,Minippady,10.08595,76.63571471
BS1875,Mla Padi Stop,9.912457592,76.48352433
BS1876,Mla Pady,10.12464481,76.22391207
BS1877,Modavoor,10.0077299,76.54413926
BS1878,Model School Stop,9.996270851,76.29367639
BS1879,Molekurishu,10.03658251,76.41626061
BS1880,Molile Cutting,10.24988331,76.47349069
BS1881,Monapilly Ambalam,9.95982698,76.42252027
BS1882,Monapilly Kurishu,9.958051886,76.42066558
BS1883,Monipalli,9.80785283,76.57530329
BS1884,Mookkan Chira,10.01246209,76.22296564
BS1885,Moolamkuzhi,9.939529269,76.24842688
BS1886,Moolampilly,10.04289548,76.26424401
BS1887,Moolekurishu,9.883723857,76.3899813
BS1888,Moonaam Kallu,10.54224091,76.04564477
BS1889,Moonani,9.712048878,76.70218695
BS1890,Moonani Or Court Complex,9.711484672,76.69884589
BS1891,Moonanparambu Junction,10.23670993,76.39969237
BS1892,Moonnani Kuzhi,9.923845963,76.52910185
BS1893,Moonnukallu,10.18892498,76.42926239
BS1894,Moonu Peedika,10.3192132,76.14570895
BS1895,Moonukkal shivajipuram Road,10.18682284,76.42048872
BS1896,Mooppan Kavala,10.20378565,76.41876063
BS1897,Moorkkattilpadi,9.824550187,76.49339718
BS1898,Moorthy Kshethram,9.741300674,76.28809491
BS1899,Moosharipady,9.992203868,76.46781276
BS1900,Moothakunnam,10.18864901,76.20168936
BS1901,Moozhikkakadavu,10.29976684,76.3666218
BS1902,Moozhikkulam,10.18762704,76.3284547
BS1903,Moozhikulam Valav,10.18460179,76.32841106
BS1904,Morakkala,10.01986533,76.40224914
BS1905,Moreli Mukku Bus Stop,10.20456728,76.34880194
BS1906,Moscow Padi,10.07267349,76.52418841
BS1907,Mouris Junction,10.00581868,76.22004457
BS1908,Mubarak,10.03339707,76.44797219
BS1909,Mudakkirayi,10.11129966,76.53050357
BS1910,Mudakkuzha Kavala,10.12443987,76.52630925
BS1911,Mudakkuzhi Panchayath,10.13345511,76.52376994
BS1912,Mudakuzha Kavala,10.14398671,76.50934604
BS1913,Mudikirayi Road,10.11281998,76.53615368
BS1914,Mudikkarayi,10.11129109,76.53107197
BS1915,Mudrakaadu,10.10034055,76.38422005
BS1916,Muillumpady,9.898594207,76.42330473
BS1917,Mukkam Stop,9.886961293,76.29832941
BS1918,Mukkannan,9.722791408,76.3280703
BS1919,Mukkanoor Hospital Junction,10.22091997,76.4129535
BS1920,Mukkod,9.975953538,76.42765358
BS1921,Mulamkulam Ambalapadi,9.842818459,76.4880769
BS1922,Mulamkulam Palli Padi,9.85362259,76.49077885
BS1923,Mulamkuzhy Or Vss Junction,10.20166349,76.55794476
BS1924,Mulamthuruthy Palli,9.900482196,76.38721128
BS1925,Mulanthuruthi Karotakurush,9.901487408,76.39294007
BS1926,Mulanthuruthy Gate Stop,9.907418064,76.38783419
BS1927,Mulanthuruthy Injimala Bus Stop,9.906259123,76.39591314
BS1928,Mulanthuruthy or Pallithazham Junction,9.900309456,76.38437452
BS1929,Mulappuram,9.933446238,76.80061376
BS1930,Mulappuram Aituc,9.939133812,76.80135989
BS1931,Mulavukad North,10.03361816,76.25300793
BS1932,Mulavukadu North,10.03402334,76.25316735
BS1933,Mulayam Padam,9.896379503,76.45396967
BS1934,Mullan Kuzhi Or Don Bosco,10.11019037,76.38895851
BS1935,Mullaserry Kurish,9.986689273,76.44821856
BS1936,Mullurppady,9.881178421,76.47970284
BS1937,Mummy Daddy,9.981129104,76.5802983
BS1938,Munambam,10.18326358,76.17367844
BS1939,Munambam Beach Bridge,10.17979327,76.168162
BS1940,Munambam Ferry Junction,10.180787,76.172898
BS1941,Munambam Kavala,10.15871789,76.21324377
BS1942,Muncipality Or Perumbavoor,10.11470388,76.47860238
BS1943,Mundakamattom Junction,10.19680178,76.47688301
BS1944,Mundakkal,9.735158102,76.69227526
BS1945,Mundampalam,10.03837659,76.34333267
BS1946,Mundamveli,9.923929435,76.25618798
BS1947,Mundupalam,9.721583161,76.67879112
BS1948,Municipal Junction,10.14861771,76.22440702
BS1949,Municipal Stadium,9.712812084,76.68674794
BS1950,Munnoorpilly,10.28314044,76.4199009
BS1951,Munnoorpilly Thazham,10.28464714,76.42035292
BS1952,Munnoorppilli Junction,10.28281528,76.43018561
BS1953,Munsiple,10.22363911,76.20011109
BS1954,Munthas,10.29311941,76.16127634
BS1955,Munthichira Palam,10.08039404,76.21599343
BS1956,Muppathadam Junction,10.09164953,76.31784337
BS1957,Murali Workshop,10.24031572,76.19223851
BS1958,Murikkanad,9.814155497,76.63995596
BS1959,Murikumpadam Bus Stop,9.990333632,76.23901178
BS1960,Muringedath Paara,10.2335525,76.44984923
BS1961,Muringoor Junction,10.28418199,76.34328681
BS1962,Muringoor Stop,10.28401285,76.34307488
BS1963,Murinjapuzha,9.819234813,76.39196766
BS1964,Murivelungu,10.06004723,76.41942836
BS1965,Muriyanthodu,10.38468514,76.12023241
BS1966,Muslim Palli,10.12895815,76.42932242
BS1967,Muslim Pally,10.1324175,76.25953516
BS1968,Muthalakadam Palli,9.910627334,76.73202665
BS1969,Muthammavu,10.55660601,76.03600314
BS1970,Muthukaadu,10.08853968,76.31498077
BS1971,Muthuvattoor,10.59476716,76.02930176
BS1972,Muttom,10.07455919,76.33543054
BS1973,Muttom Thaikavu Bus Stop,10.07065181,76.33176593
BS1974,Muttuchira,9.754282851,76.50406795
BS1975,Muttuchirakka Palam Or Kandakkapalli Palam,9.743287457,76.28724526
BS1976,Muvattupuzha Private Stand Stop,9.979417685,76.5859172
BS1977,Muzhayumoodu,9.809590917,76.49358678
BS1978,Mythri Bus Stop,9.912757601,76.40830815
BS1979,Mythri Or Hump,10.16330239,76.17081541
BS1980,Naalam Mile,10.11456024,76.25960064
BS1981,Naalu Vazhi,9.996446402,76.22291391
BS1982,Naalum Koodiya Kavala Or Amballoor Kavala Or Sndp Junction,9.868801886,76.3985295
BS1983,Naavolimattom,9.918227945,76.55273027
BS1984,Nad Gate,10.0686282,76.34219201
BS1985,Nad Kavala,10.06958167,76.385734
BS1986,Nad Signal Bus Stop,10.06643991,76.35638675
BS1987,Nadakkavu,10.0781071,76.42162851
BS1988,Nadakkel,9.962229334,76.81543598
BS1989,Nadamuri,10.21977979,76.45125172
BS1990,Nadamuri Road,10.21697618,76.44965043
BS1991,Nadukkurishu Bus Stop,9.944091504,76.43251916
BS1992,Naduvattom,10.20291297,76.466699
BS1993,Naduvilapalli Bus Stop,10.05899314,76.28679645
BS1994,Nagam Kualangara,9.722681394,76.33761777
BS1995,Nagambadam Or Kottayam New Bus Stand,9.595246383,76.52805686
BS1996,Nagapady Junction,9.922082195,76.39865651
BS1997,Nagari,9.791210187,76.35890079
BS1998,Naipunya School Stop,10.2536504,76.40201977
BS1999,Najath Hospital,10.11460871,76.35066446
BS2000,Nalam Block Kuriz,10.20070631,76.53943158
BS2001,Nalam Mile,10.08958288,76.39696116
BS2002,Nalukettu,10.27045948,76.39851326
BS2003,Nalukulaghara,9.780201597,76.30455789
BS2004,Naluvazhy Kapela,10.20590599,76.23932724
BS2005,Namakuzhy,9.855835398,76.524248
BS2006,Nambilly,10.15430082,76.44846772
BS2007,Nambiyaar Padi Junction,9.978186777,76.49310367
BS2008,Nambyakulam,9.708780412,76.53602654
BS2009,Nandikulangara,10.14536824,76.2464239
BS2010,Nangelippady,10.06972897,76.60204988
BS2011,Nanthiattukunnam,10.12359313,76.23144178
BS2012,Narakkal Bus Stop,10.04739149,76.21722437
BS2013,Narayanate Kada,10.10513619,76.30805371
BS2014,Nareekkapadi,10.01540142,76.50588669
BS2015,Nattika,10.42040206,76.10491207
BS2016,Nattika Kottu Kallu,10.4259263,76.10216655
BS2017,Nattika Panthrandam Kallu,10.4285552,76.10071882
BS2018,Navajeen Nagar,10.05869844,76.5277604
BS2019,Naval Base Bus Stop,9.944148178,76.2835343
BS2020,Navarag Junction Or Shappumpady,10.01767901,76.35084158
BS2021,Navodaya,10.02725949,76.35969912
BS2022,Navy Nagar,9.929701456,76.25354767
BS2023,Nayarambalam Bus Stop,10.07210647,76.21180845
BS2024,Nayarambalam Fish Market,10.06619271,76.2129162
BS2025,Nayarangadi,10.30952839,76.37701853
BS2026,Nayarpeedika,10.09116004,76.43939886
BS2027,Nayathod School,10.16857661,76.39841659
BS2028,Nayathod South Or Alinchodu,10.1644378,76.39596615
BS2029,Nayathode Or Shappupady,10.16194838,76.39655347
BS2030,Nayathodu Junction,10.18495882,76.39907355
BS2031,Ncc Junction,9.776195953,76.31803131
BS2032,Near Delavakulam Stand,9.753954987,76.39922315
BS2033,Near Oil Mill,9.761804445,76.41437324
BS2034,Nechoor,9.908497261,76.46637452
BS2035,Nediyara,10.17263313,76.49720951
BS2036,Nedugadu Palli,10.06936524,76.22317428
BS2037,Nedukuzhi Tazham,10.00211253,76.52475743
BS2038,Nedumbaserry Post Office,10.14657164,76.35339388
BS2039,Nedumbrakad Muryianatt,9.698139728,76.34948245
BS2040,Nedumbrakkad Muryianattu,9.698184739,76.34950015
BS2041,Nedumthode,10.10219438,76.45722286
BS2042,Nedunganni,10.16496156,76.52720043
BS2043,Neduva Kurishu,9.874782034,76.43424518
BS2044,Neduvannur,10.13605507,76.38085289
BS2045,Neduvannur Gate,10.14112826,76.3769068
BS2046,Neduvannur Rail Gate,10.1412378,76.37808032
BS2047,Neeleeshwaram,10.18555786,76.47528608
BS2048,Neeleshwaram Temple,10.15595068,76.20843369
BS2049,Neelimangalam,9.723153764,76.32338387
BS2050,Neendakara,9.821213087,76.2896295
BS2051,Neerkodu,10.117761,76.28345371
BS2052,Neerkodu Palam,10.10947713,76.28007703
BS2053,Neerppara,9.825154813,76.42942132
BS2054,Neeruvelichira  Sndp,9.69174911,76.29065845
BS2055,Neethu Stores Stop Or Palisherry Or Palussery,10.27020989,76.41010865
BS2056,Nehru Park,9.900221794,76.37817145
BS2057,Nellad,10.01529213,76.52447604
BS2058,Nelladu Amabalam,10.01371104,76.5205948
BS2059,Nellikuzhi,10.07613331,76.59357643
BS2060,Nellikuzhi Canal,10.07282911,76.59706235
BS2061,Nellikuzhi Panchayath,10.07755609,76.59021806
BS2062,Nellimolam,10.08500971,76.51965109
BS2063,Nethaji Padi,9.854976915,76.43648744
BS2064,Netoor Junction,9.928814865,76.31779735
BS2065,Netoor Palli,9.922933783,76.31737032
BS2066,Nettupadam Junction,9.924724561,76.49815854
BS2067,New Era Hospital Pady,10.11857716,76.38143903
BS2068,New Voice,9.769640959,76.28144969
BS2069,Neythushalapadi,9.931861366,76.5066135
BS2070,Neyyassery Kavala,9.923851532,76.78998593
BS2071,Ngo Quarters Junction,10.0209614,76.33505194
BS2072,Nice Theatre,9.786781046,76.44022896
BS2073,Nicolas,9.828016034,76.30994597
BS2074,Nilampathy,10.30887882,76.38073866
BS2075,Nirappu,9.882402318,76.50111089
BS2076,Nirmala College 1,10.30567488,76.39126229
BS2077,Nirmala College 2,10.30632252,76.3900143
BS2078,Nirmala College Stop,9.975939249,76.59302506
BS2079,Nirmala Giri Padi,9.930346193,76.4905083
BS2080,Niveditha,10.09634129,76.3857641
BS2081,Njaanadan,9.782011619,76.3950193
BS2082,Njaliparambu,9.962944995,76.24313911
BS2083,Njalukkara,10.21164801,76.39277443
BS2084,Njarackal Bus Stop,10.04949691,76.21673596
BS2085,Njarakkal Hospital,10.04273727,76.22259856
BS2086,Njarakutty,9.92508523,76.74842794
BS2087,Njaralloor,10.03589105,76.42291036
BS2088,NKN Hospital,9.858755202,76.29278486
BS2089,Nm Junction,9.901620936,76.32169437
BS2090,Nochima or Kombara,10.06947484,76.36343501
BS2091,Nondimakkal,9.722734608,76.69183424
BS2092,North Court Junction,10.30697588,76.33424508
BS2093,North Jetty,9.997175802,76.26438859
BS2094,North Kunnumpuram Or Bramasthanam,10.04683429,76.29657813
BS2095,North Paravur,10.14762975,76.23049269
BS2096,North Paravur Bus Stand,10.1495075,76.23170703
BS2097,North Railway Station Road,9.99091737,76.28438361
BS2098,Nra Stop,10.04329266,76.22510908
BS2099,Nsiti,10.06506955,76.49769217
BS2100,Nss College Kavala Bus Stop,9.724945029,76.36073998
BS2101,Nuals College,10.05953141,76.36155041
BS2102,Nursinghome,10.17473903,76.3749733
BS2103,Nusrath Nagar,10.04742745,76.49025904
BS2104,O Paalam,10.54632463,76.04338336
BS2105,Oberon Mall,10.0141697,76.31158769
BS2106,Ochanthurath,10.01063876,76.22995818
BS2107,Odakkali Junction,10.09448255,76.55785359
BS2108,Odakkali Road,10.10347501,76.54852065
BS2109,Odakkalikkavala,10.12262998,76.57148415
BS2110,Odambally,9.820962322,76.35015895
BS2111,Odampalli Ambalam,9.818822971,76.35087811
BS2112,Odapuzhi Paalam,9.542172843,76.31276635
BS2113,OEN,9.92429217,76.41714004
BS2114,OEN Bus Stop,9.960995939,76.32179126
BS2115,Okkal,10.15219574,76.45093886
BS2116,Okkal junction,10.15340984,76.44956064
BS2117,Old But Stand Or Railway Station,10.10769571,76.35721705
BS2118,Old Post Office,10.12091458,76.23988946
BS2119,Olippuram,9.846313221,76.43792011
BS2120,Oliyapuram,9.886282522,76.5716641
BS2121,Olph School Stop,10.25990321,76.4047301
BS2122,Omanapuzha Palli,9.539613047,76.31384265
BS2123,Omanapuzha Rani Junction,9.546679261,76.31209443
BS2124,Omkareswaram,9.701911612,76.35285543
BS2125,Onakkoor,9.889167739,76.50315221
BS2126,Onamkulam,10.07453136,76.46434354
BS2127,Onnam Block,10.20164334,76.52112924
BS2128,Onnam Mile,10.11662644,76.49182654
BS2129,Oonjappara,10.10169636,76.66065825
BS2130,Oottimattom,10.06225924,76.43766753
BS2131,Oovungal Bazar,10.58915914,76.02534032
BS2132,Orthodos Pally,10.14411504,76.54627344
BS2133,Ottamassery Palli,9.700803717,76.28967001
BS2134,Ottapunna,9.698096563,76.31819979
BS2135,Ottathengu,10.57407354,76.02748546
BS2136,Oushadhi Junction,10.11683234,76.47597282
BS2137,Ozankavala,10.17703978,76.30945226
BS2138,P O,9.9794975,76.58119141
BS2139,P S Mission Hospital Stop,9.937998311,76.32232241
BS2140,P T Jacob Road Junction,9.935791195,76.26141007
BS2141,Paadam,10.09003969,76.52119904
BS2142,Paadam Bus Stop,10.07656222,76.44003287
BS2143,Paadathu,9.947526896,76.41952275
BS2144,Paakkanaadupady,9.898977708,76.45830454
BS2145,Paalachuvadu,9.952778194,76.38583342
BS2146,Paalam,9.785253712,76.44610493
BS2147,Paalam Or Kotekavu Church,10.15009265,76.21702941
BS2148,Paalam Or Kotekavu Church,10.15006426,76.21681517
BS2149,Paalam Stop,10.01163184,76.22211465
BS2150,Paalam Stop Or Anjaam Mile,10.02676858,76.44610359
BS2151,Paalapadi,9.955037839,76.41966538
BS2152,Paambakuda Private Stand,9.92011842,76.52127597
BS2153,Paambra Junction,9.909241858,76.44042393
BS2154,Paappan Pady,10.14019595,76.47983596
BS2155,Paapu Kavala,9.923904546,76.52251879
BS2156,Paara Stop,10.12322729,76.48478023
BS2157,Paaramada,9.920496733,76.75201107
BS2158,Paarayikavala,9.821799857,76.29846297
BS2159,Paatam Palli,9.753871883,76.28396277
BS2160,Pachalam Junction,10.00132353,76.27957004
BS2161,Pachalli Kallu Shap,9.714203865,76.33708304
BS2162,Pachamukku Junction,10.07289268,76.288184
BS2163,Pachila,9.97194127,76.80283184
BS2164,Pachullapady,10.089789,76.56584578
BS2165,Padamugal Bus Stop,10.0140251,76.33291512
BS2166,Padamugal Masjid Stop,10.01373815,76.33207394
BS2167,Padancherry,10.15970903,76.55061382
BS2168,Padapparambu,10.00919548,76.44665172
BS2169,Padath,9.953188584,76.43301175
BS2170,Padath Junction,9.938857857,76.42846765
BS2171,Padathikkara,10.00154061,76.39461073
BS2172,Padathikkara Stop,10.00027037,76.39375642
BS2173,Padathikkara Turuth Stop,10.00754671,76.37821633
BS2174,Padikkad Junction,10.13042934,76.5244163
BS2175,Padikkalapara,10.13930177,76.48743516
BS2176,Padinjare Kavala Or Manoor,10.04634063,76.53222809
BS2177,Padinjare Pally,10.17522758,76.28778225
BS2178,Padinjarekkavala,9.772964567,76.42554377
BS2179,Padinjarenada,10.22729504,76.1972148
BS2180,Padivatton Bus Stop Or Alinchuvadu Junction,10.00666689,76.31551534
BS2181,Padma Junction,9.981913733,76.28275962
BS2182,Padmashi Kavala,9.743069196,76.31865598
BS2183,Padom Bus Stop,10.01890182,76.2872498
BS2184,Paikkara,9.82757492,76.4979746
BS2185,Paingarapilly,9.889748992,76.41461999
BS2186,Painkilikkavala,10.20208306,76.53595871
BS2187,Painungal Para,9.9103325,76.40280859
BS2188,Paittakulam,9.872978638,76.58275944
BS2189,Pala Junction,10.21853603,76.41237112
BS2190,Pala Old Pvt Stand,9.712390706,76.68462143
BS2191,Pala Town,9.714235187,76.68353599
BS2192,Palace Bus Stop,9.94675717,76.34270441
BS2193,Palachuvadu,9.866286391,76.50793413
BS2194,Palakkamugal Pally Pady,10.0550151,76.34354542
BS2195,Palam,10.11832209,76.41943966
BS2196,Palam Bus Stop,10.11381688,76.46361632
BS2197,Palamkadavu,9.792535693,76.44375015
BS2198,Palanattykavala,9.998096792,76.5233432
BS2199,Palancherymugal,10.05736566,76.39098858
BS2200,Palapetty North,10.36875842,76.12489756
BS2201,Palapetty Valavu,10.36667245,76.12317745
BS2202,Palapprassery Or Companypady,10.15587699,76.33080514
BS2203,Palarivattom,10.00204476,76.30510846
BS2204,Palarivattom Junction,10.00190776,76.30652748
BS2205,Palarivattom Pipeline Bus Stop,10.00485399,76.31182068
BS2206,Palathali Road,10.01304815,76.51863213
BS2207,Palaveli,9.807971203,76.64524412
BS2208,Palayikkunnu,10.07537081,76.4585645
BS2209,Palaykkamattam Or Chapel Junction,9.949151745,76.46998866
BS2210,Palissery,10.27455575,76.41126276
BS2211,Paliyam Kavala,10.17240689,76.23355007
BS2212,Paliyam Road,10.15373187,76.23387613
BS2213,Pallathamkulangara Bus Stop,10.10994634,76.20259855
BS2214,Pallathupadi,10.02587675,76.35735379
BS2215,Palli,10.05308458,76.33181404
BS2216,Palli Bus Stop,10.1397179,76.19862199
BS2217,Palli Kutti,9.910794418,76.6997975
BS2218,Palli Nada,10.26335616,76.18118125
BS2219,Palli Or East Fort Gate Junction,9.944794951,76.34892756
BS2220,Palli Padi,10.01000103,76.56838805
BS2221,Palli Pady,10.14369766,76.54715209
BS2222,Palli Parambu,10.00690909,76.21948271
BS2223,Palli Stop,9.89476283,76.33783578
BS2224,Palli Valavu,10.29294798,76.1645973
BS2225,Pallichanda,9.755139109,76.36316543
BS2226,Pallichirangara,10.02618207,76.55531288
BS2227,Pallikav,10.22003437,76.32304525
BS2228,Pallikavala,9.696306379,76.34712818
BS2229,Pallikkara,10.02470242,76.40355652
BS2230,Pallikkavala,10.10893552,76.45828888
BS2231,Pallimugal,9.995889575,76.3942873
BS2232,Pallimukk,10.01090054,76.41088595
BS2233,Pallimukk Bus Stop,10.1570317,76.25623146
BS2234,Pallimukku,9.962209135,76.2823071
BS2235,Pallimukku Menka Bus Stop,9.963918077,76.28622283
BS2236,Pallinaati,9.995537642,76.52290781
BS2237,Pallinada Bus Stop,9.992957776,76.30853152
BS2238,Pallipadam Kavala,10.2533099,76.45124344
BS2239,Pallipadi,9.999904151,76.52523871
BS2240,Pallipadi Or Chengamanad Pally,10.15315829,76.34320938
BS2241,Pallipadi stop,10.0688225,76.28598563
BS2242,Pallipady,10.10342757,76.29217676
BS2243,Pallipetta,10.18718369,76.47875696
BS2244,Pallippadi,10.10306199,76.24967515
BS2245,Pallippadi Or Mekkad Pally,10.17584631,76.35645636
BS2246,Pallippady,10.11045589,76.45964115
BS2247,Pallippuram,10.17075308,76.17899295
BS2248,Pallippuram Basicilica,10.1667699,76.18143079
BS2249,Pallippuram Government Hospital Junction,10.16897798,76.18063239
BS2250,Pallippuram Post Office,10.17295738,76.17657457
BS2251,Pallippuram Stop,10.22922311,76.25596607
BS2252,Pallipuram,9.755648496,76.35332451
BS2253,Pallithaazham,10.04948619,76.41051735
BS2254,Pallithazham,10.14972626,76.24028693
BS2255,Pallithazham Or Chottanikkara Temple Bus Stop,9.933184204,76.38949874
BS2256,Pallithod Palam,9.77736043,76.28010107
BS2257,Pallithode Hospital Stop,9.776509506,76.28361382
BS2258,Pallithode Paalam,9.7766775,76.28767578
BS2259,Pallithodu Beach Or Road Mukk,9.775710608,76.28049553
BS2260,Palliveli Stop,9.797927378,76.34568451
BS2261,Palliyampuram,9.811400871,76.64226869
BS2262,Palluruthy Nada,9.926884656,76.27129908
BS2263,Palluruthy Veli Bus Stop,9.92102967,76.27373341
BS2264,Pally,10.04923097,76.30339322
BS2265,Pally Pady,10.23449775,76.40063387
BS2266,Pally Pady Mookkannur,10.21392336,76.4069297
BS2267,Pally Pady Or Kanjirakkad,10.13043362,76.47069213
BS2268,pallypady,10.14100593,76.36167323
BS2269,Palyamturuth,10.17005474,76.19832957
BS2270,Pambaimoola,9.912035456,76.29374983
BS2271,Panaka Palam,9.699735094,76.75915701
BS2272,Panakkal,9.71490898,76.28796245
BS2273,Panambikunnu,10.33139257,76.14097865
BS2274,Panambukadu,10.00043079,76.24625251
BS2275,Panambukadu End,10.01152924,76.24180646
BS2276,Panambukkad,9.987051604,76.25358609
BS2277,Panamkuruthottam,10.19287915,76.52629354
BS2278,Panamkuruthottam temple,10.19579935,76.53044673
BS2279,Panamkuzhi,10.18223103,76.55409852
BS2280,Panampilly Nagar,9.954452936,76.29672392
BS2281,Panangaadu School Stop,10.27312558,76.17459299
BS2282,Panangad,9.882791449,76.33005394
BS2283,Panangad Vhs School,9.897805015,76.32401323
BS2284,Panar Paalam,9.878022499,76.39293676
BS2285,Panayapilly,9.949508236,76.25746591
BS2286,Panayikulam Junction,10.1021419,76.30149205
BS2287,Panaykkapadi,9.991897223,76.41157461
BS2288,Panchayat,10.05251949,76.37666853
BS2289,Panchayath,9.970158493,76.42121182
BS2290,Panchayath Junction,9.793361549,76.41759509
BS2291,Panchayath Kinar,10.23021133,76.36156563
BS2292,Panchayath Kullam,9.909367018,76.30590014
BS2293,Panchayath Palam,9.782248447,76.27952452
BS2294,Panchayath Stop,9.907550821,76.44513259
BS2295,Panchayathu Kinar,10.01188434,76.43575391
BS2296,Pandikad,10.13128104,76.53442713
BS2297,pandikudy,9.913199336,76.13136422
BS2298,Pandikudy Junction,9.952089896,76.24939422
BS2299,Panditji,9.916743779,76.30540872
BS2300,Panduppara,10.22834766,76.51497053
BS2301,Pangod Junction,9.989101346,76.44112009
BS2302,Panichayam Kavala,10.10416692,76.56679332
BS2303,Panikkarachan Temple,10.15373135,76.2436001
BS2304,Panikkarambalam,10.07606476,76.52375048
BS2305,Panikkaru Padi,9.978404407,76.24092431
BS2306,Paniyeli,10.16751463,76.58127899
BS2307,Panjamkavala,10.1882174,76.21298972
BS2308,Panjayath,10.03981384,76.27974914
BS2309,Panji Chuvadu,9.918400895,76.28284641
BS2310,Panjipaalam,9.803528164,76.39757055
BS2311,Pankod,10.00806698,76.43848499
BS2312,Pankod Junction,10.00507443,76.44003841
BS2313,Pannamchira,10.22784811,76.46850317
BS2314,Pannara Padi,9.864629785,76.51203865
BS2315,Pannikuzhy,9.973302453,76.41767607
BS2316,Panpunjji Kadavu,10.01991778,76.25604085
BS2317,Panthakkal,10.25213472,76.38860213
BS2318,Pappada Valav,10.18333156,76.19150907
BS2319,Pappan Peedika,10.29219366,76.40199096
BS2320,Pappangamukku Or School,9.934894423,76.24612468
BS2321,Pappu Kavala,9.923925812,76.52251653
BS2322,Para Junction,10.17415952,76.49941463
BS2323,Para Or Sndp,10.24878803,76.42550394
BS2324,Parakadav Ration Kada,10.19470326,76.32430606
BS2325,Parakandam,10.2270457,76.38658946
BS2326,Parakkadavu,10.18942409,76.32377817
BS2327,Parakkadavu Block Office,10.1705676,76.32996108
BS2328,Parakood,10.02028945,76.42034171
BS2329,Paramada,9.765137972,76.62991753
BS2330,Parambathupady,9.922889092,76.43922208
BS2331,Parambayam,10.13533331,76.35351313
BS2332,Parambilpeedika Or Keezhilam,10.06577215,76.52590014
BS2333,Parambilpeedika Or Keezhilam,10.06634928,76.52580674
BS2334,Parappuram,10.13333499,76.44619848
BS2335,Parapuram,10.22732836,76.38999609
BS2336,Parathijetti,10.06055239,76.27122648
BS2337,Parathodu,9.739540138,76.65391719
BS2338,Paravana Junction,9.95198924,76.2556509
BS2339,Paravoor Bus Stand,10.14557709,76.23170766
BS2340,Paravoor Kavala,10.11863552,76.34342082
BS2341,Paravoor Stand,10.15601894,76.23609795
BS2342,Paravoor Town,10.14917408,76.23395056
BS2343,Paravur Kavala Bus Stop,10.1201133,76.34262012
BS2344,Paravur Market Bus Stop,10.15008379,76.22064291
BS2345,Parayakad Palam,10.16351888,76.22215107
BS2346,Parayakadu Kavala Bus Stop,10.16556133,76.21338925
BS2347,Parayakkad Ambalam,10.16643506,76.22227258
BS2348,Parayatha Pady,10.17852379,76.44607998
BS2349,Pareekkapeedika,9.948837696,76.6297302
BS2350,Parekkatti Kavala,9.96291212,76.48015037
BS2351,Parekurisu,9.943805052,76.46722941
BS2352,Parepadi,10.10214067,76.56150833
BS2353,Parippu Junction,9.935093537,76.25253595
BS2354,Parippumthode,10.23614382,76.39428848
BS2355,Pariyaram,9.962078992,76.44016222
BS2356,Paruthelipalam,10.02616821,76.31228164
BS2357,Paruthichuvadu,9.993966952,76.22462536
BS2358,Paruthichuvadu Bridge Or Paruthichuvadu Palam,10.15314736,76.42656667
BS2359,Paruthiveli Padi,10.05645017,76.51608284
BS2360,Pashnithod Palam,9.91337009,76.28284866
BS2361,Pathaam Kallu Edassery,10.45418134,76.08729509
BS2362,Pathaam mile,9.88971652,76.37264138
BS2363,Pathadipalam,10.03817276,76.31535952
BS2364,Pathalam,10.07713792,76.318185
BS2365,Pathalam Geetha,10.07896142,76.32088152
BS2366,Patham Mile Or Vadayampady,9.973912963,76.44750659
BS2367,Pathinettaam Padi,9.939714522,76.47542803
BS2368,Pathinezham Kallu,10.36188621,76.12572886
BS2369,Pathippalam,10.10743926,76.47536697
BS2370,Pathirapally,9.533951048,76.31562395
BS2371,Pattal,10.11272935,76.49659231
BS2372,Pattal Old Post Office Or Irighole,10.11577268,76.49945917
BS2373,Pattam,10.17221464,76.27925148
BS2374,Pattanakad Panjayath Office,9.732596221,76.31877279
BS2375,Pattanakad Police Station,9.736211969,76.31843856
BS2376,Pattanakkad Panjayath Office,9.732613161,76.31865465
BS2377,Pattanakkad School,9.729299195,76.3189225
BS2378,Pattanam Junction,10.15652384,76.21348688
BS2379,Pattanam School,10.15692725,76.20585169
BS2380,Pattayamkavala,9.914235159,76.74233192
BS2381,Pattimattom,10.02500802,76.449548
BS2382,Pattimukku,9.859044498,76.40535715
BS2383,Pattippara,10.08977392,76.43626685
BS2384,Pattithaanam,9.685725805,76.55668517
BS2385,Pauls Hospital,9.988339589,76.29546405
BS2386,Payachodu,10.38066728,76.12152457
BS2387,Payappar,9.74126267,76.69001905
BS2388,Payasapadi,9.789950341,76.60104256
BS2389,Payyal junction,10.12128124,76.56920094
BS2390,Pazhampilly,10.10193909,76.27010768
BS2391,Pazhampilly Thuruth,10.17713291,76.2414273
BS2392,Pazhamthottam,10.0170467,76.42853259
BS2393,Pazhangad bus stop,10.09077729,76.20776075
BS2394,Pazhangadu Bus Stop,9.863252155,76.2919487
BS2395,Pazhangadu Junction Or Pump Junction Bus Stop,9.8616862,76.29217167
BS2396,Pazhanganad,10.04437561,76.39756161
BS2397,Pazhanganattu Vellikavala,10.11320321,76.24813514
BS2398,Pazhaya Panchayath,9.863870246,76.39900761
BS2399,Pazhe Panchayath Kavala,9.872598977,76.4874185
BS2400,Pazheya Bank Junction,10.1642419,76.48768245
BS2401,Pazheya Post Office,9.99662472,76.31930182
BS2402,Pazheya Pump,9.872378026,76.49136694
BS2403,Pazhoor,9.884105847,76.4733083
BS2404,Pazhukkumattam  Stop,9.927753222,76.43316011
BS2405,Pddp,10.15581928,76.48349976
BS2406,Pddp Jn,10.00909324,76.41678589
BS2407,Pddpp,9.966893477,76.37757621
BS2408,Peechanikkadu,10.21571375,76.36225089
BS2409,Peechingachira,9.98959931,76.40946762
BS2410,Peechingachira Or Pothenamparambu,10.00269505,76.40516586
BS2411,Peedika Padi,9.869005569,76.55239647
BS2412,Peedikappadi,10.10392309,76.31848805
BS2413,Peenappady,9.907925784,76.46441384
BS2414,Peenappady Or Ymca Maneed,9.906781886,76.46177152
BS2415,Pendanam Mile,9.736227815,76.65826085
BS2416,Peppathi,9.88263586,76.45824375
BS2417,Peraalumkoottam,10.0528032,76.52095049
BS2418,Peranadoor Junction,10.018142,76.28466035
BS2419,Perikkapalam,10.11412533,76.33808104
BS2420,Perikkappalam,10.11426158,76.33832559
BS2421,Peringala,10.00545326,76.39944523
BS2422,Perinjanam,10.31557635,76.14699596
BS2423,Periyar,10.17892348,76.41768601
BS2424,Periyar Porters,10.1178081,76.40570515
BS2425,Perumalpadi Bus Stop,10.02553538,76.22371565
BS2426,Perumbadappu Bus Stop,9.903671384,76.28620071
BS2427,Perumbalam Ferry,9.835756825,76.34182811
BS2428,Perumbalam Junction,9.834467813,76.33914129
BS2429,Perumbavoor,10.1149525,76.47457422
BS2430,Perumbavoor Bus Stand,10.11329989,76.47142559
BS2431,Perumbavoor private bus stand,10.11295514,76.47175949
BS2432,Perumbavoor Town,10.11318642,76.47154907
BS2433,Perumbayipadi,9.943449992,76.47013166
BS2434,Perumbi,10.25862202,76.3642301
BS2435,Perumbilly Block,9.88919424,76.38570553
BS2436,Perumbilly Nada,9.885477085,76.38683406
BS2437,Perumkutty,9.840397153,76.61537103
BS2438,Perummuzhi,9.975886183,76.51083569
BS2439,Perummuzhi Junction,9.975818483,76.50416629
BS2440,Perumpadanna,10.14383495,76.21663366
BS2441,Perumpadanna Bridge Stop,10.14310958,76.21186731
BS2442,Perumpadappu Bus Stop,9.90314855,76.28181999
BS2443,Perumpilly Stop,10.03560463,76.22050086
BS2444,Perumthrikovil Or Post Office Bus Stop,9.920527124,76.36187018
BS2445,Peruva,9.826948991,76.50153408
BS2446,Peruvaram Bus Stop,10.14223198,76.23611325
BS2447,Petrol Pump,9.860988821,76.30620033
BS2448,Petrol Pump Junction,9.863077349,76.59614634
BS2449,Petta,9.95020123,76.33141009
BS2450,Petta East Or Skyline,9.951444802,76.33558528
BS2451,Pezhakappily,10.01808462,76.56395887
BS2452,Pharmacy,10.15113728,76.35424012
BS2453,Pillamukk,9.830335232,76.30963897
BS2454,Pinarmunda Pally,10.00691873,76.38514888
BS2455,Pipeline,10.03335322,76.32550022
BS2456,Pipeline Junction,10.00517373,76.31342099
BS2457,Pipenjika,9.825512545,76.29820594
BS2458,Piraroor,10.16587549,76.41093554
BS2459,Piraroor Diary,10.16621653,76.41319164
BS2460,Piravom Road Railway Station Stop,9.829414947,76.45556064
BS2461,Piravom Stand,9.874612899,76.48838868
BS2462,Pirlakkad,10.12560518,76.53206891
BS2463,Pisharadippady,9.997691132,76.41169097
BS2464,Pithurkunnam Bus Stop,9.7787225,76.39522856
BS2465,Planchodu,9.802049176,76.4803794
BS2466,Plantation 14 Th Block,10.24832052,76.51463052
BS2467,Plantation 9 Th Block,10.260979,76.52298781
BS2468,Plantation Check Post,10.25641174,76.48102476
BS2469,Plantation Kavala,9.986893791,76.789285
BS2470,Plapilly Kavala,10.19092642,76.4766887
BS2471,Plavinchod,10.10429036,76.31316932
BS2472,Plavinchuvad,10.27301426,76.37577744
BS2473,Plavinchuvadu,9.824140608,76.44752374
BS2474,Plavumchuvadu,10.2370307,76.396901
BS2475,Plavumury,10.23719693,76.27790747
BS2476,Poickattussery Or Compnypady,10.16800118,76.34016896
BS2477,Pokkalangara,10.50282299,76.06159892
BS2478,Police Quarters,10.12475547,76.47311694
BS2479,Police Station,10.07423654,76.30049443
BS2480,Police Station Or Subjail,10.10279948,76.3584405
BS2481,Police Station Or Anndikkadavu,9.886179436,76.26100903
BS2482,Police Station Pady,9.942628826,76.48165711
BS2483,Police Station Stop,9.827044322,76.4764697
BS2484,Pollethai,9.582552606,76.30619218
BS2485,Pollethal,9.582551776,76.30617712
BS2486,Ponekkara Bus Stop,10.03290493,76.29638082
BS2487,Ponevazhi Bus Stop,10.03048001,76.29727891
BS2488,Ponevazhy Road,10.03256611,76.30324829
BS2489,Pongam,10.23420105,76.40656925
BS2490,Ponjassery,10.09149095,76.44206516
BS2491,Ponjassery Valavu,10.09135246,76.44404754
BS2492,Ponkutty,9.84995292,76.53524438
BS2493,Ponnamvelli,9.737534316,76.31837681
BS2494,Ponnarimangalam,10.00366632,76.26251124
BS2495,Ponnurunni East Bus Stop,9.979527516,76.31707104
BS2496,Ponnurunni East Or Chalikkavattom Bus Stop,9.979149764,76.31727991
BS2497,Ponnurunni Temple,9.972271804,76.31680059
BS2498,Poochakal Police Station,9.806413648,76.35339065
BS2499,Poochakkal Junction,9.794611841,76.35550481
BS2500,Pookkattupady,10.05924292,76.395453
BS2501,Poolani Kinar,10.30853318,76.38287325
BS2502,Poolani Shap Junction,10.30827456,76.38485904
BS2503,Poomala,10.06326727,76.44028717
BS2504,Poomkavu,9.529096629,76.31625465
BS2505,Pooppanakkunnu,9.8763964,76.28869349
BS2506,Pooppani,10.12692879,76.48321264
BS2507,Poosharippadi Bus Stop,10.13713803,76.24111785
BS2508,Poosharippadi Or Kmk,10.14341999,76.22816177
BS2509,Poothamkutty Junction,10.26331588,76.42834894
BS2510,Poothirikka,9.950576212,76.45506949
BS2511,Poothota Paalam,9.840980383,76.38863387
BS2512,Poothotta,9.845398462,76.3869166
BS2513,Poothotta Junction,9.693867543,76.34614681
BS2514,Poothotta Puthen Kaavu,9.852111974,76.38517795
BS2515,Poothrikka Thazhe,9.953287682,76.4533858
BS2516,Poothuruthy Palam,10.30201278,76.36839172
BS2517,Poovan Kalary,10.19781334,76.3243716
BS2518,Poovathussery,10.20470502,76.32171956
BS2519,Poovathussery Ambalanada,10.21170632,76.32221879
BS2520,Pooyapilly,10.14817791,76.20019599
BS2521,Pop Kavala Or Scms College Junction,10.26786814,76.40747932
BS2522,Pori Bazar,10.25747078,76.18420489
BS2523,Porokkotta Stop,10.11361498,76.41019783
BS2524,Post Office,10.16695133,76.19263122
BS2525,Post Office Chendamangalam,10.17273436,76.23633962
BS2526,Post Office Edappally,10.01839376,76.30414475
BS2527,Post Office Junction,10.13364476,76.4449119
BS2528,Post Office Or Palam,10.18465119,76.50396773
BS2529,Post Office Stop,10.15414963,76.49300478
BS2530,Post Office Thirunellur,9.714103257,76.35893209
BS2531,Pothan Pady,10.1591925,76.47016016
BS2532,Pothanam Kurish,10.00094679,76.40820901
BS2533,Pothanpady,10.15916601,76.47015486
BS2534,Pothy Paalam,9.794827917,76.46740234
BS2535,Potta Kinar,9.687783972,76.32080981
BS2536,Pottachira Temple,10.07076124,76.35828666
BS2537,Pottakuzhy,10.00521476,76.28890241
BS2538,Pottayil Bus Stop,9.962465055,76.34146636
BS2539,Potten Therivu,10.14455499,76.22677467
BS2540,Pottenchira,9.779834041,76.43495314
BS2541,Pournami Busstop Or Gopika,10.08720199,76.26817309
BS2542,Power House,9.963223304,76.31917378
BS2543,Poyianimalla,9.781022833,76.61306698
BS2544,Poykatusery Kapela Or Kuzhikkattusery,10.16396784,76.33993858
BS2545,Poyya,10.2132627,76.23157826
BS2546,Poyya Or Koyya,10.2158594,76.24887174
BS2547,Prabus Bus Stop,10.14412597,76.22048043
BS2548,Pranavam,9.904997961,76.30638504
BS2549,Prathiba Stop,9.763053161,76.28231728
BS2550,Pravithanam,9.745919709,76.70252674
BS2551,Prc,9.707568797,76.3369745
BS2552,Premier,10.06025603,76.32236056
BS2553,Premier Ground Or Premier,10.06042679,76.32272501
BS2554,Premier Kalamassery Or Premier Junction,10.06097269,76.32307207
BS2555,Private Bus Stand Chalakkudy,10.30052331,76.33718579
BS2556,Priyadarshini Bus Stop,9.868929072,76.29090681
BS2557,Priyadarshini Junction,9.526388946,76.31669177
BS2558,Priyadarshini Paalam,9.9901793,76.23115182
BS2559,Providence,9.988280472,76.28095612
BS2560,Ps Kavala,9.800723184,76.30131091
BS2561,Puillamukk,9.8301275,76.30952845
BS2562,Pukkad,10.03081396,76.2376615
BS2563,Pukkattupady,10.05996895,76.39685386
BS2564,Pulary,10.14399722,76.47232982
BS2565,Puli Nagar,10.09325756,76.2927405
BS2566,Pulichotty Kurisu,9.955603813,76.44981352
BS2567,Pulichuvadu,9.687441318,76.31367843
BS2568,Pulichuvadu Or Railway Cross,9.703860987,76.31139185
BS2569,Pulicka Pady,10.0688133,76.52552633
BS2570,Pulida Chodu,9.989342925,76.47189608
BS2571,Pulikallu,10.26224364,76.40489107
BS2572,Pulikamaali.Kavala,9.888849265,76.41917099
BS2573,Pulike Kadavu,10.24104288,76.3331214
BS2574,Pulikkamalikkavala,9.913819013,76.41373292
BS2575,Pulimala,10.09472215,76.60751766
BS2576,Pulinchod Or Cheppanem Bund,9.904378756,76.33055226
BS2577,Pulinchode,10.00751809,76.44186499
BS2578,Pulinchodu,10.17762058,76.31805746
BS2579,Pulinchodu Bus Stop,10.09910401,76.34749828
BS2580,Pulinchuvadu Junction,10.00517477,76.57067876
BS2581,Pulinjode,9.758399563,76.40226464
BS2582,Puliparambu Road,10.21612007,76.25326251
BS2583,Puliprappadi,10.12239238,76.23974478
BS2584,Puliyamballil Temple,10.07697364,76.22074972
BS2585,Puliyanam GHSS School,10.20346814,76.35460774
BS2586,Puliyanam Junction,10.21597181,76.35499063
BS2587,Puliyanpilly,10.07283392,76.49221498
BS2588,Pullalikkara Bus Stop,10.06648819,76.35409324
BS2589,Pullamkottupady,9.92458336,76.4570959
BS2590,Pullamkulam School Pady,10.1451978,76.23531346
BS2591,Pullarkatt Padam,10.16814597,76.29356241
BS2592,Pullepady,9.980833822,76.284616
BS2593,Pullikkavazhi,9.73159314,76.29027838
BS2594,Pullinchodu,9.894311292,76.31037047
BS2595,Pullorparambu,10.1576925,76.47149609
BS2596,Pumb junction,9.965341074,76.37923066
BS2597,Pump House,9.571142794,76.30818668
BS2598,Pump House Or Nad School,10.0650326,76.33138443
BS2599,Pump House Stop,9.841277398,76.47157303
BS2600,Pump Junction,10.10770235,76.3592084
BS2601,Punnachuvadu,9.729500647,76.36177093
BS2602,Punnakal Pallipuram,9.763661378,76.36188047
BS2603,Punnakaveli Bus Stop,9.858074572,76.38326876
BS2604,Punnakkad Kavala,10.10793976,76.67347051
BS2605,Punnakkal,9.768595916,76.28148758
BS2606,Punnakkal Temple,10.01921958,76.29110446
BS2607,Punnakuru,10.29972943,76.15281682
BS2608,Punnayam Ambalam,10.10963844,76.5454123
BS2609,Punnayam Canal Paalam,10.10470905,76.54757965
BS2610,Punnorkodu Jn,10.02437656,76.431965
BS2611,Punnyam Kavala,10.12241607,76.54725768
BS2612,Punoor Ambala Padi,10.07641423,76.47653918
BS2613,Punoor School Padi,10.07530332,76.47801641
BS2614,Puramthode,10.19685085,76.50467263
BS2615,Puranthode,10.19693433,76.50463051
BS2616,Purathaam Kuzhi,9.728183116,76.29535886
BS2617,Puravarikkal Junction Or Kondotty Valavu,10.12502326,76.37284306
BS2618,Purayar,10.12807895,76.369224
BS2619,Purayar Or Chowara Railway Gate,10.11905529,76.36240335
BS2620,Puthamkutty Or Koodhamkutty,10.26442387,76.43112951
BS2621,Puthan Nada Or Piravam,9.897354868,76.46277375
BS2622,Puthan Palam,9.694900517,76.41958143
BS2623,Puthan Veedu,9.735100041,76.66021842
BS2624,Puthanangadi Temple Stop,9.883156988,76.30225095
BS2625,Puthanchantha,9.7540023,76.31847501
BS2626,Puthanthodu,9.868620337,76.26676939
BS2627,Puthanthodu High School,9.86153759,76.26852725
BS2628,Puthencruz Stand,9.969377625,76.42332113
BS2629,Puthenkav Ambalam,10.20410433,76.33767245
BS2630,Puthenkkavu Or Sn Junction,9.851729902,76.38530003
BS2631,Puthenkruz Stand,9.9690275,76.42280078
BS2632,Puthenkulangara Shiva Temple,9.983292029,76.3306623
BS2633,Puthenkurishu Velya Palli,9.969276746,76.42607844
BS2634,Puthenpally,10.20357027,76.4480211
BS2635,Puthenpilly,10.08179678,76.26978671
BS2636,Puthenthodu,10.1534974,76.34762361
BS2637,Puthenvelikara Stand,10.18759939,76.24521588
BS2638,Puthenvelikkara Ferry,10.18049659,76.2441986
BS2639,Puthiya kaavu,9.924336478,76.35919265
BS2640,Puthiya Panchayath,9.858826553,76.40122546
BS2641,Puthiya Road,10.0675107,76.32254981
BS2642,Puthiya Road Bypass Junction,9.992712783,76.31497336
BS2643,Puthiya Road Junction,9.965294201,76.34027831
BS2644,Puthiyakavu,9.717085513,76.31765415
BS2645,Puthiyapalam Or Vaduthala,9.850064707,76.32803388
BS2646,Puthiyaroad,9.954257865,76.30240358
BS2647,Puthiyedam Junction,10.13544278,76.42988748
BS2648,Puthiyeduthu,9.903074537,76.32664252
BS2649,Puthiyidam Vayanasala,10.13565388,76.43476555
BS2650,Puthoor Paalam,9.858680188,76.32485291
BS2651,Puthooran Kavala,10.0769406,76.48952973
BS2652,Puthukalavattom Elamakkara,10.02438241,76.28975752
BS2653,Puthukulangara,10.46140217,76.08433759
BS2654,Puthumana,10.17573037,76.5517209
BS2655,Puthumana Estate Or Katting Colony,10.27864927,76.43276028
BS2656,Puthuppanam,9.981648495,76.45869264
BS2657,Puthusherry,10.06540253,76.25873114
BS2658,Puthuvype Village Office,10.006019,76.23211634
BS2659,Puthuvypu Bus Stop,10.00386787,76.23315037
BS2660,Puthya Kavu,10.29418214,76.15493413
BS2661,Puythiya Palam,9.847190833,76.32878902
BS2662,Puzhakkaredath,10.15747994,76.19608414
BS2663,Pyary Junction,9.931843106,76.26655739
BS2664,Pypin Chuvadu,9.791216157,76.38174834
BS2665,Quality Or Nayathode South,10.1663025,76.39722266
BS2666,Quarters,10.14475197,76.46101397
BS2667,Radhika Oil Mill,10.23103852,76.35522965
BS2668,Radio Kavala,10.17288603,76.45409202
BS2669,Rail,10.00910943,76.26143017
BS2670,Railway Cross,9.821680392,76.3015032
BS2671,Railway Gate,10.12084096,76.36381577
BS2672,Railway Station,9.861561421,76.41081828
BS2673,Railway Station Check Post Padi,9.826638875,76.45643054
BS2674,railway stations,9.944996058,76.35391362
BS2675,Rajaji Nagar,10.03159543,76.43884706
BS2676,Rajashree,9.986130331,76.4118274
BS2677,Rajashree Jn,9.985803698,76.42075875
BS2678,Rajashree Kavala Bus Station,9.95480794,76.20614327
BS2679,Rajeev Gandhi Stop,10.0042473,76.33937617
BS2680,Rajiv Gandhi Junction Or Anamanada Stand,10.23897461,76.32857626
BS2681,Ramakrishnan Nagar,10.00130849,76.34035039
BS2682,Ramalloor,10.07666207,76.62937284
BS2683,Ramamangalam Hospital Junction Or Ramamangalam Aashupathry Padi,9.944137361,76.49110931
BS2684,Ramamangalam Kadavu,9.940870558,76.47727828
BS2685,Ramapuram,9.800272422,76.66134724
BS2686,Ramapuram Ambalam,9.801824626,76.65158119
BS2687,Ramapuram Junction,9.85858858,76.59432586
BS2688,Ramapuram Pvt Stand,9.799750559,76.65939805
BS2689,Ramapuram Santhi Bhavan,9.800732057,76.65553519
BS2690,Ramavarma,9.718281178,76.33750267
BS2691,Ranga Kala,9.991148946,76.22709001
BS2692,Ration Kada,9.86094765,76.43880742
BS2693,Ration Kada  Ottamassery,9.7032228,76.28928158
BS2694,Ration Kada Kavala,10.10285398,76.38404357
BS2695,Ration Kada Padi Junction,9.962190569,76.50407925
BS2696,Ration Shop,10.21315978,76.39912277
BS2697,Ravipuram,9.95625683,76.28307148
BS2698,Ravipuram Bus Stop,9.959583856,76.2890163
BS2699,Ravipuram jn,9.958246077,76.28181549
BS2700,Ravipuram Junction,9.956761046,76.28218379
BS2701,Rayamagalam,10.09205872,76.52102129
BS2702,Rcm Hospital,9.94645212,76.35180415
BS2703,Reethalayam Palli,9.64989101,76.29993962
BS2704,Reshan Kada,10.08378358,76.2376806
BS2705,Reshankada,10.10238711,76.28877131
BS2706,Rotary Club Stop,10.06089163,76.27263798
BS2707,Rps Kavala,10.20021126,76.54538514
BS2708,Rubber Park,10.04480089,76.48952659
BS2709,Rvuhs Or Cherai School Bus Stop,10.12834107,76.19773445
BS2710,S H College,9.938258543,76.29673482
BS2711,S H Stop,10.14077078,76.49073998
BS2712,S J Stop,10.00331582,76.22159836
BS2713,S N Road,10.17826145,76.21615871
BS2714,S R M Junction,9.994911051,76.28696763
BS2715,S R M Road Palli Stop,10.00113866,76.28298421
BS2716,S Valavu,10.02240325,76.5583161
BS2717,Sabine Hospital,10.01396255,76.56685641
BS2718,Sahayapadi,10.088854,76.39948583
BS2719,Sahodaran Ayyappan,9.969241636,76.30772659
BS2720,Sai School,10.11959569,76.31173657
BS2721,Saint Alberts,9.985255061,76.27900707
BS2722,Saint Benedict Junction,9.990333219,76.28205265
BS2723,Saktheeswaram Junction,9.69567999,76.32506945
BS2724,Samoohya Seva Sangham,10.14044919,76.18647634
BS2725,Samskara Junction Bus Stop,9.997006073,76.30786533
BS2726,Samudra Beach Resort Stop,10.17612149,76.16634606
BS2727,Sangamam Padi,9.986377372,76.56596052
BS2728,Sangamampady,10.03742178,76.54276544
BS2729,Sanjos Hospital,9.507681308,76.32812467
BS2730,Sankranthi,9.626596945,76.54008039
BS2731,Santhigiri Bus Stop,10.06697428,76.35187092
BS2732,Santhom,10.15114956,76.54433562
BS2733,Santhome School Or Madam,10.21652555,76.407951
BS2734,Saradhi Junction,9.559731032,76.31006298
BS2735,Sargam,10.06212766,76.26974216
BS2736,Saritha Theatre Bus Stop,9.984912263,76.27650084
BS2737,Saudi Palli Or Beach Road Stop,9.928762269,76.24815036
BS2738,Saudi Palli Or Beach Road  Stop,9.928849297,76.24813802
BS2739,Saudi School,9.935045455,76.24598789
BS2740,Scaso Club Junction,10.25858593,76.40475749
BS2741,school,10.14301872,76.37034105
BS2742,School Muttam Or Elamkunnappuzha Panjayath,10.01036238,76.23008694
BS2743,School Or Hospital,10.25725214,76.52428234
BS2744,School Or Pump Kavala,10.18707529,76.49411762
BS2745,School Padi,9.928768241,76.48698421
BS2746,School Padi Bus Stop Kumbalam,9.898788588,76.31420101
BS2747,School Pady,10.07556256,76.3575266
BS2748,School Pady Or Aashupathri,10.1427775,76.50933096
BS2749,School Stop,10.1273525,76.26287109
BS2750,Schoolpadi Or Athani,10.11943528,76.25587354
BS2751,Schoolpady Or Lp School,10.13634562,76.40560269
BS2752,Schoolum Padi,9.999534433,76.55695592
BS2753,Sea lord,10.05468074,76.29228276
BS2754,Seafood Stop,9.986848097,76.24020887
BS2755,Seekkad,10.27380953,76.43699066
BS2756,Seethappadi,9.937327534,76.65319889
BS2757,Sehyon Kappela,10.24167519,76.42333273
BS2758,Seminarypadi Bus Stop,10.12416806,76.33998903
BS2759,Semithery,10.06899044,76.26860956
BS2760,Sevana,10.04033028,76.41373872
BS2761,Sez,10.00643891,76.34497896
BS2762,Shaapumpadi,9.903040436,76.3152802
BS2763,Shalem School,10.07339873,76.44798473
BS2764,Shanmugan Kavala,10.19665197,76.47935467
BS2765,Shanmugapuram,10.00506974,76.27859126
BS2766,Shanthi Kavala,9.760984495,76.35327922
BS2767,Shanthi Nagar,9.932367791,76.29901873
BS2768,Shanthi Puram,10.26138892,76.18223536
BS2769,Shap Pady,10.16197415,76.3965375
BS2770,Shappu,9.912334357,76.30583083
BS2771,Shappu Junction,10.26931984,76.40925467
BS2772,Shappu Padi,10.08467077,76.2690184
BS2773,Shappum Padi,9.789388558,76.3802362
BS2774,Shappum Pady,10.17026673,76.23900596
BS2775,Shappumpaddi,10.06164778,76.28604035
BS2776,Shappumpadi,9.907195078,76.70805735
BS2777,Shappumpadi Stop,9.887356691,76.48747705
BS2778,Shappumpady,9.95823247,76.46392705
BS2779,Shappupady,10.1591667,76.20168957
BS2780,Shappupady Or Kuriapilly,10.18450194,76.20454418
BS2781,Shappupady Or Moothakunnam,10.18418325,76.20310072
BS2782,Shapum Pady,10.18072816,76.41409732
BS2783,Shapumpadi,9.870563848,76.43510422
BS2784,Shapumpady,10.22817433,76.41505041
BS2785,Shapupady,10.15923295,76.20179857
BS2786,Sharadha Madam,9.792376268,76.38837696
BS2787,Sharippady,9.967517927,76.33931399
BS2788,Shashtha Kulam,9.659588168,76.4247459
BS2789,Shasthamughal,9.95302275,76.389956
BS2790,Shasthri Junction,9.577698374,76.30649521
BS2791,Shavakotta Paalam,9.499737848,76.32853079
BS2792,Shead Pady,10.08996313,76.26715484
BS2793,Sheemam Kunna Padi,9.863939319,76.53266351
BS2794,Shenoys Bus Stop,9.975916306,76.28434294
BS2795,Shiva Amabalm,9.900160825,76.30744744
BS2796,Shiyaz Stop,10.09614828,76.30238415
BS2797,Siena College,9.913276944,76.28985928
BS2798,Signal Station,10.11807844,76.67692541
BS2799,Sijo Stop,10.26541918,76.4068675
BS2800,Silpi  Theatre,10.21546499,76.20181855
BS2801,Silverster Junction,9.98070112,76.54558405
BS2802,Sissilu Jetty,10.01832971,76.25656942
BS2803,Sivaratry Kadav,10.16254598,76.44659129
BS2804,Smhs,10.15089642,76.1899381
BS2805,Smunipuram Or Chapel Stop,9.899403608,76.56091874
BS2806,Sn Bus Stop,10.04158694,76.53079654
BS2807,Sn Junction,9.954204588,76.34389652
BS2808,Sn Pady,10.04092075,76.48029183
BS2809,Sn Puram,10.27704456,76.17116495
BS2810,Sndp,10.15024554,76.20588964
BS2811,Sndp Hss Palissery,10.21782732,76.32895285
BS2812,Sndp Junction,10.08014754,76.27318131
BS2813,Sndp Junction Or Transformer Stop,9.870809231,76.42347229
BS2814,Sndp Or Paarakulam,10.19743716,76.45362906
BS2815,Sndp Or Varapuzha Chetti Bhagam Junction,10.07884666,76.27086737
BS2816,Sndp Temple,10.1589838,76.20007714
BS2817,Snehagiri,10.23162041,76.29232557
BS2818,Snehagiri Church,10.23099763,76.28950143
BS2819,Soceity Pady,10.22542468,76.38989487
BS2820,Society,9.925725288,76.24905621
BS2821,Society Padi,10.03870501,76.54037562
BS2822,Society Pady,10.01279816,76.52371917
BS2823,Societypady,10.14321998,76.53767394
BS2824,Soorya,9.689096008,76.29087752
BS2825,SOS,10.07782015,76.37728154
BS2826,South Chellanam Post Office Or Society,9.794728403,76.27783552
BS2827,South Kalamassery,10.04956951,76.31714338
BS2828,South Mazhuvanoor Or Mazhuvanoor Kizhakke Kuriz,10.00182882,76.49009718
BS2829,South Or Girls High School,9.968053471,76.2880466
BS2830,South paravoor,9.863598891,76.3820189
BS2831,South Piramadom Or Prathyasha Junction,9.920631578,76.54381292
BS2832,South Vazhakkulam,10.0896767,76.41118098
BS2833,South Vazhakkulam Or Post Office,10.0887718,76.41622471
BS2834,Sp Office Or Power House Junction,10.09994769,76.35748812
BS2835,Spring Dales School Stop,9.923335297,76.52578273
BS2836,Srappilly,9.927618239,76.45377165
BS2837,Sree Krishna Swami Temple,10.07963092,76.21311547
BS2838,Sree Krishna Temple,10.17933772,76.17290527
BS2839,Sree Krishna Temple Stop,9.951844638,76.46173641
BS2840,Sree Subrahmanya Swami Temple,10.03037044,76.22849801
BS2841,Sreedhareeyam Stop,9.866131332,76.58022104
BS2842,Sreekaleeswary Theatre Or Thekkenada,10.22487943,76.1997263
BS2843,Sreemoolanagaram Government Hospital,10.13447895,76.40333266
BS2844,Sreemoolanagaram Or Kinar,10.13334322,76.40121014
BS2845,Sreenarayan Puram,9.831931058,76.29775499
BS2846,Sringapuram,10.21893099,76.20166259
BS2847,Srm Junction,10.00229165,76.2817356
BS2848,Srv Station Or Mazhuvanoor Post Office,10.00721209,76.48669446
BS2849,Srv Station Pady,10.00535885,76.48658423
BS2850,Ssv College Stop,10.0572351,76.50634976
BS2851,St Antonys Chapel Or School,10.18672491,76.38153562
BS2852,St Francis Church,9.986043409,76.29595121
BS2853,St George Pally,10.03982613,76.35654334
BS2854,St Joseph Church,9.896669918,76.28406844
BS2855,St Joseph Kappela,10.20043699,76.49797441
BS2856,St Joseph School,10.19297275,76.36627473
BS2857,St Jude Or Nazrath Madam,10.25333311,76.40049854
BS2858,St Lawrence School,9.903856677,76.29500116
BS2859,St Louis Chapel,9.927839066,76.25429702
BS2860,St Marys,10.19654821,76.42452955
BS2861,St Marys Church,9.920931701,76.41794533
BS2862,St Mary'S Church,10.0676583,76.26870764
BS2863,St Mary'S Church Or St Joseph School,10.0784998,76.277356
BS2864,St Marys School,10.04890067,76.40842432
BS2865,St Peter,10.26912758,76.4338025
BS2866,St Peters,9.696071029,76.29019829
BS2867,St Sebastien,10.18041091,76.17043433
BS2868,St Theresas College Bus Stop,9.975825867,76.27837473
BS2869,St Thomas,9.709726741,76.67822115
BS2870,St Xaviers Church  Azheekka Palli,9.74115064,76.2857024
BS2871,St.Joseph Chapel,9.965293858,76.81251286
BS2872,St.Jude,9.936687037,76.80129858
BS2873,St Marys Church,9.920999405,76.41793929
BS2874,Staff Quarters,10.07382443,76.32635289
BS2875,Star Moola Or Star Junction,9.959298157,76.25800652
BS2876,State Bank,9.683865144,76.42023389
BS2877,Statue Junction,9.944935332,76.34632806
BS2878,Sthanardhi Mukku,9.87990854,76.39214014
BS2879,Store,10.05005683,76.34590679
BS2880,Store Kavala,9.617157045,76.3008491
BS2881,Sub Station,9.76146452,76.41113008
BS2882,Subhramanya Kshethram,9.859141917,76.40824324
BS2883,Sundari Kavala,10.22497628,76.39198285
BS2884,Sundari mukku,9.992156227,76.41830792
BS2885,Sunday School Padi,9.965983528,76.46679421
BS2886,Sundhari Mukku,9.99352459,76.32645997
BS2887,Sunrise Hospital,10.02488675,76.33815545
BS2888,Supermarket Or Vaaniyakkadu,10.13749487,76.24682592
BS2889,Suriyani Palli,9.929329835,76.26973981
BS2890,Surya,9.843089062,76.53550856
BS2891,Susan Mable Thomas Smarakam,9.982427985,76.47004348
BS2892,Swamipady Or Vayanasala,10.01292239,76.28634974
BS2893,Swaraj Yss,9.684954385,76.29971531
BS2894,Tabore Hill Bus Stop,10.26103924,76.42772617
BS2895,Tabour Hill stop,10.25806748,76.43334593
BS2896,Taluk hospital,10.11315516,76.48438032
BS2897,Tarayilkavala,10.1845905,76.19398771
BS2898,Tazhanjira,10.17704514,76.25571364
BS2899,Tb junction,10.19545852,76.38839574
BS2900,Tcc,10.07404679,76.30357059
BS2901,Td High School,9.769246791,76.30860393
BS2902,Telephone Exchange,10.09788931,76.23387119
BS2903,Telephone Exchange Stop,10.23102577,76.43811708
BS2904,Telk,10.17853595,76.37815137
BS2905,Temple,9.889778084,76.32750442
BS2906,Teresa Nagar Stop,9.948605256,76.30338577
BS2907,Thachethu Parambu,10.07578906,76.22132452
BS2908,Thadikkakadavu,10.15619461,76.32295914
BS2909,Thadiyittaparambu Police Station Road,10.08768199,76.42979106
BS2910,Thaikavu,10.06648001,76.43474013
BS2911,Thaikavu Junction,10.07660123,76.37894909
BS2912,Thaikkal Beach,9.685983412,76.29103644
BS2913,Thaikkal Palli  Pallimukku,9.686017598,76.29585788
BS2914,Thaikkal School Or Thaikkal Junction,9.685398268,76.30235347
BS2915,Thaikkav,10.09196193,76.3022244
BS2916,Thaikkavu,10.06624604,76.46257465
BS2917,Thaikkavu Junction,9.994884305,76.32021344
BS2918,Thaiveppu,10.13541892,76.22066123
BS2919,Thalakodu Post Office,9.92067074,76.40851974
BS2920,Thalakotta Paramb,10.20376298,76.43485179
BS2921,Thalappara,9.790507854,76.46008032
BS2922,Thalayalam Panchayath,9.715558908,76.41707157
BS2923,Thalayolaparambu,9.785147974,76.44281802
BS2924,Thalikkara,10.16055595,76.33999699
BS2925,Thalikkulam,10.44002993,76.09507435
BS2926,Thalikkulam High School,10.4462625,76.09190627
BS2927,Thalikkulam Koprakkalam,10.4362459,76.09743142
BS2928,Thaluk Hospital,9.942154776,76.34623893
BS2929,Thamarachal,10.0424151,76.40368638
BS2930,Thamarachal Puram,10.04638091,76.40678566
BS2931,Thamarakad Kavala,9.830728743,76.62093205
BS2932,Thamarakad Palli,9.829133796,76.62584452
BS2933,Thamarakad Shappumpadi,9.832578053,76.61937503
BS2934,Thamarappady Or Thrikkapuram,10.10991069,76.24463724
BS2935,Thamathupady,9.804729237,76.64721387
BS2936,Thammanam Bus Stop,9.986067971,76.31102785
BS2937,Thammanimattom,9.951107775,76.48141754
BS2938,Thammanimattom Thookupalam Stop,9.947136803,76.48139591
BS2939,Thandassery Ambalam,10.00653632,76.26197953
BS2940,Thandekkad,10.09778278,76.45252231
BS2941,Thangal Nagar Junction,9.917097325,76.28086909
BS2942,Thangal Padi,10.56922457,76.02938778
BS2943,Thangalam,10.06923434,76.61294419
BS2944,Thanikkal Junction,10.01113318,76.2870505
BS2945,Thanipuzha,10.15960887,76.44285912
BS2946,Thanipuzha Bluebells,10.16108633,76.44486443
BS2947,Thanki Kavala,9.703707777,76.31714582
BS2948,Thanki Palli,9.707487702,76.29816412
BS2949,Thanki Vazhi  Kadathu Kadavu,9.707419238,76.28892659
BS2950,Thannickal Temple,10.00858736,76.28763635
BS2951,Thannikkatu Molam,10.01118279,76.4985149
BS2952,Thannippadam Junction Bus Stop,10.15571812,76.25037666
BS2953,Thannippally,9.810333928,76.45467887
BS2954,Thara Mukal,9.676993,76.30348138
BS2955,Thathapilly,10.11847029,76.26863563
BS2956,Thattaamppuram Padi,10.10511027,76.51892148
BS2957,Thattaanpady,10.04894711,76.29491193
BS2958,Thattam Pady,10.14225672,76.36505356
BS2959,thattampady,10.14222591,76.36511436
BS2960,Thattamugal Or Thattamugal Palli,10.02388274,76.4860903
BS2961,Thattanmugal Kurishu Palli Or Pathamughal,10.02334797,76.48119046
BS2962,Thattanpady Bus Stop,10.13534037,76.42454236
BS2963,Thattathumala,9.942474151,76.44549087
BS2964,Thattekaad Bird Sanctuary,10.13013674,76.68681584
BS2965,Thattekkad Jetty,10.12670714,76.68513397
BS2966,Thavala Kavala,10.00143524,76.55424972
BS2967,Thavalakkuzhi,9.680555805,76.55744939
BS2968,Thavalappara,10.21913476,76.43943152
BS2969,Thavannakadu,9.742580431,76.36873187
BS2970,Thayezhuthe Vazhi Bus Stop,10.07562929,76.21127338
BS2971,Thaykkavu Palli,10.15470725,76.26464206
BS2972,Thayyil,9.594047745,76.30439557
BS2973,Thazhathe Thottoor,9.849893492,76.46068598
BS2974,Thazhathu Pally Or St George Church,10.1749649,76.39842706
BS2975,Thazhthe Cutting,10.2464775,76.47337931
BS2976,Theater Bus Stop,9.689239067,76.34244054
BS2977,Theatre Pady,10.11258556,76.51340707
BS2978,Theerdhassery Ambalam,9.521592178,76.32285173
BS2979,Thekey Naluvazhi,10.14088135,76.22932572
BS2980,Thekkan Malipuram Bus Stop,9.994795202,76.23723618
BS2981,Thekke Bhajanamadam Or Guru madam Or State Bank,9.856694298,76.29317445
BS2982,Thekke jetty,10.05435194,76.26658721
BS2983,Thekke kavala,10.02100745,76.44807056
BS2984,Thekke Kavala  Thekkum Bhagam Kavala,10.12628339,76.44679977
BS2985,Thekke Nada,10.22542954,76.19838797
BS2986,Thekkenada,9.749259996,76.39597923
BS2987,Thekkethazham,10.14995976,76.26312039
BS2988,Thekkum Mala,9.929333927,76.66764091
BS2989,Thekkum Moottil Padi,9.869714727,76.50089246
BS2990,Thekkumpuram Road Junction,10.16497562,76.24249083
BS2991,Thelathurath,10.15387448,76.27372031
BS2992,Thembadi Lakshamveedu Or S Valavu,9.824039848,76.34422958
BS2993,Thengodam,9.939687998,76.81004556
BS2994,Thenkunnel Ambalam,9.995857028,76.49271055
BS2995,Thennika,9.980947591,76.48182512
BS2996,Therappadi Or Njaralloor Or Dhayarypadi,10.03384033,76.43021492
BS2997,Thettaly,10.1308147,76.3902869
BS2998,Thevadi Paalam,9.794096312,76.39184819
BS2999,Thevakkal,10.04633991,76.36381128
BS3000,Thevara,9.949613498,76.29184942
BS3001,Thevara Ferry,9.925994642,76.30427755
BS3002,Thirumangalam,10.50557305,76.06015118
BS3003,Thirumarady Junction,9.88893548,76.55404634
BS3004,Thirumarayoor,9.860745473,76.45841207
BS3005,Thirumuppam,10.09261235,76.26647879
BS3006,Thirunaloor School Bus Stop,9.718834587,76.36017047
BS3007,Thirunilam,10.04147288,76.5375814
BS3008,Thiruvaloor,10.12039831,76.3067357
BS3009,Thiruvanchikulam,10.21027367,76.20385882
BS3010,Thiruvaniyoor Or Oen Connectors,9.926653253,76.41690942
BS3011,Thiruvankulam,9.943593267,76.37401157
BS3012,Thiruvankulam Junction,9.943276272,76.37387485
BS3013,Thiruvankulam Panchayath,9.946058756,76.36803039
BS3014,Thiruvanniyoor,9.933106648,76.42312116
BS3015,Thiruvanniyoor Panchayath,9.933962769,76.42543802
BS3016,Thiruvizha Beach Junction,9.641971107,76.29844996
BS3017,Thodaparambu,10.13124057,76.48204539
BS3018,Thodupuzha Private Bus Stand,9.893780118,76.70815831
BS3019,Thommankuth Kavala,9.958747834,76.81899041
BS3020,Thond Kadav,10.16483657,76.45148865
BS3021,Thondal,10.1813175,76.24963672
BS3022,Thondanpara,9.943605611,76.40098232
BS3023,Thondipeedika,9.985015505,76.45813435
BS3024,Thonniyakavu,10.13655433,76.23054404
BS3025,Thonniyakavu South,10.13537618,76.23151527
BS3026,Thopilampady,10.14086897,76.488361
BS3027,Thoppil Kadavu Junction,10.12465343,76.37968776
BS3028,Thoppumpady Bus Stop,9.937411423,76.26385407
BS3029,Thoppumpady Ernakulam Bus Stop,9.935249957,76.26231415
BS3030,Thoppumpady Marina Bus Stop,9.93533512,76.26332056
BS3031,Thorappu Bus Stop,10.06387908,76.36258299
BS3032,Thoshiba,10.05182712,76.33402116
BS3033,Thottakam,10.19097368,76.4390561
BS3034,Thottakam Palli,9.739005951,76.40506195
BS3035,Thottakam School,9.736834656,76.41338639
BS3036,Thottakkattukara Bus Stop,10.11380953,76.34651063
BS3037,Thottam,10.07043217,76.44827855
BS3038,Thottapadi Stop,9.885047249,76.44427751
BS3039,Thottappadanpadi,10.10226578,76.47504458
BS3040,Thottathymala,9.940269493,76.44750398
BS3041,Thottoor Ashupathry Pady,9.849058361,76.45456259
BS3042,Thottumugam Junction,10.11077037,76.37301071
BS3043,Thottuva,10.18601303,76.48763638
BS3044,Thottuva Palam,10.17244389,76.49470431
BS3045,Thottuvakkam,9.740978107,76.39643805
BS3046,Thrichattukulam,9.833557084,76.33385698
BS3047,Thrichattukulam North Or North Stop,9.841571074,76.33111568
BS3048,Thrikakara Vallathod,10.03251197,76.33604254
BS3049,Thrikathra,9.985305472,76.35206118
BS3050,Thrike Pady,10.13558712,76.50832774
BS3051,Thrikkakara,10.03698482,76.36469002
BS3052,Thrikkakkara Temple,10.03444891,76.3296731
BS3053,Thrikkalathoor Kavupadi,10.03477976,76.54602684
BS3054,Thrikkalathoor Pallithazham,10.02922118,76.5493149
BS3055,Thrikkanikkavu,10.12717793,76.42755527
BS3056,Thrikkapuram,10.10809149,76.24758488
BS3057,Thrikkariyor,10.0840398,76.60992145
BS3058,Thrippunithara Or East Fort Gate Junction,9.944954438,76.34872146
BS3059,Thrippunithura,9.942907828,76.34554846
BS3060,Thrippunithura Bus Stand,9.943035142,76.34648516
BS3061,Thriprayar South,10.41302031,76.10803559
BS3062,Thriprayar Stand,10.41503745,76.1071072
BS3063,thripunithura private stand,9.942919844,76.34512503
BS3064,Thripunitura Kizhakke Kotta,9.945334873,76.34874189
BS3065,Thripunitura Old Bus Stand,9.948468825,76.34744179
BS3066,Thripunitura Pazhya Bus Stand,9.949008098,76.34722654
BS3067,Thrithalloor Centre,10.48617118,76.07122446
BS3068,Thrithalloor Hospital Stop,10.48378338,76.07258512
BS3069,Thrivenni,10.13861509,76.53649794
BS3070,Thumpoly Junction,9.521928286,76.32762688
BS3071,Thumpoly Palli,9.520321999,76.31861517
BS3072,Thundathum Kadavu Or Attakkuzhy,10.06713032,76.26432295
BS3073,Thundathumkadavu Or Uneesho Palli,10.06972483,76.27004802
BS3074,Thungaali,10.15060587,76.54219647
BS3075,Thuppampady,9.913494427,76.41148707
BS3076,Thuravoor junction,10.2045636,76.42180007
BS3077,Thuravoor Panjayath Office,9.756504335,76.31816911
BS3078,Thuravur,9.76693158,76.31795809
BS3079,Thuravur Railway,9.769063973,76.31172779
BS3080,Thuruth Or Kalangu Junction,10.12517327,76.37694603
BS3081,Thuruthi,10.12249668,76.53789019
BS3082,Thuruthi Kara,9.890546144,76.39999823
BS3083,Thuruthippili Or Erapp,10.08312568,76.48152318
BS3084,Thuruthippilly Pally,10.08649222,76.48004418
BS3085,Thuruthippli Or St Marys College,10.08597485,76.48129535
BS3086,Thuruthippuram,10.17179031,76.21197049
BS3087,Thuruthummal,10.22621298,76.4073099
BS3088,Thuruvelikunnu,9.770206357,76.41849244
BS3089,Thuthiyoor,9.9958525,76.34372266
BS3090,Thuthiyoor Stand,9.991386572,76.34342251
BS3091,Thuthiyoor Stop,9.994863504,76.34252006
BS3092,Thykattusery Or Somanadham,9.788311987,76.35916656
BS3093,Thykattussery Junction,9.774216795,76.34074743
BS3094,Thykavu,10.07985698,76.35754371
BS3095,Thykavu Bus Stop,9.855313528,76.30681665
BS3096,Thykkavu,10.03637222,76.31435188
BS3097,Thykkavu Bus Stop,10.03174189,76.32185665
BS3098,Thykkoodam,9.95769784,76.32392821
BS3099,Thykkoodam Junction,9.958998925,76.32503462
BS3100,Toll,9.797079573,76.39908186
BS3101,Toll Junction,9.796339014,76.39936311
BS3102,Tower,10.15844562,76.20472433
BS3103,Town Hall,9.896492454,76.71187261
BS3104,Town Little Flower,10.19222754,76.38518177
BS3105,Townhall,10.11023531,76.35913817
BS3106,Traco Cable Or Irumpanam,9.986863339,76.35194594
BS3107,Transformer Kavala,10.02142878,76.46595207
BS3108,Tripunithura Stand,9.9430625,76.34642578
BS3109,Twenty Twenty,10.03926995,76.40491214
BS3110,Udaya Nagar,10.07951207,76.48648841
BS3111,Udayamperoor,9.896294516,76.3699236
BS3112,Udayanapuram,9.772686269,76.39529053
BS3113,Udayasurya,9.978074624,76.44511282
BS3114,Ullala,9.708076882,76.41848289
BS3115,Ullala Palli,9.718791201,76.41658964
BS3116,Ullas Nagar,10.27050584,76.35822721
BS3117,Undicompany Bus Stop,10.09413924,76.3597355
BS3118,Union Kavala,10.16333004,76.44807308
BS3119,Universal,10.27700783,76.38738464
BS3120,Unnichira,10.03024405,76.32002467
BS3121,Uppukallu,10.23789722,76.47118701
BS3122,Uppukandam,10.11483559,76.61026779
BS3123,Uriyari Ambalam,9.807737821,76.42988433
BS3124,Uthupankavala,10.20431803,76.42891301
BS3125,Uzhavoor,9.789993491,76.61020834
BS3126,V P Thuruthu,10.19731707,76.20080014
BS3127,Vaakeyil Achan Stop Or Pallinada Stop,9.938370241,76.32334628
BS3128,Vaakkayil,9.79219725,76.43564451
BS3129,Vaalakom,9.981029391,76.5204578
BS3130,Vaalingamury,10.27484014,76.38079159
BS3131,Vaarathodu Paalam,10.1781578,76.21475112
BS3132,Vachaal,10.13675242,76.48069085
BS3133,Vachakkal Bus Stop,10.09408981,76.20681958
BS3134,Vacherippara,10.04147896,76.41686529
BS3135,Vadakara,9.877727351,76.57632655
BS3136,Vadakekurisu Junction,9.902791512,76.3930347
BS3137,Vadakkampilly,10.18909684,76.5252076
BS3138,Vadakkampilly Kavala,10.1911083,76.5258321
BS3139,Vadakkath Palli,9.841469062,76.2958608
BS3140,Vadakke Bajanamadam,9.891509341,76.28514915
BS3141,Vadakke Kotta,9.952971148,76.33934051
BS3142,Vadakke Punnayam Anganvadi,10.11489868,76.5450584
BS3143,Vadakkekara,9.733282787,76.36211852
BS3144,Vadakkekkavala,10.10854642,76.56851594
BS3145,Vadakkenada,10.22808808,76.19835735
BS3146,Vadakkepally Or North Chellanam,9.823419946,76.27311107
BS3147,Vadakkum Puram,10.17915799,76.22618139
BS3148,Vadakumpuram Or Chennamangalam,10.16889726,76.23438507
BS3149,Vadavukod Hospital Junction,9.977360235,76.42661516
BS3150,vadavukod puthan kurishu,9.983818871,76.3952136
BS3151,Vadavukode,9.985542171,76.42858335
BS3152,Vadayambathu Mala,9.982785431,76.41323801
BS3153,Vadayar Or Elamkavu,9.774516132,76.42897999
BS3154,Vadkke Maliyamkara Junction,10.17958227,76.18032055
BS3155,Vadukunnappuzha Ambala Padi,9.838567415,76.49459893
BS3156,Vadukunnappuzha Vaayanashala,9.835650938,76.4985946
BS3157,Vaduthala Bus Stop,10.02056646,76.27427116
BS3158,Vaduthala Gate,10.01348768,76.27693993
BS3159,Vaduthala Palam,10.02365783,76.27392273
BS3160,Vaduthala Palli,10.02180047,76.27398915
BS3161,Vaduthala Valavu,10.01894497,76.27530916
BS3162,Vadyarupady Or Onampilly,10.1652756,76.45337924
BS3163,Vai Pady,10.03974425,76.30078647
BS3164,Vaidhyanpadi,9.920796157,76.54744066
BS3165,Vaidyan Padi,10.10312421,76.56375941
BS3166,Vaidyarupadi,10.14105494,76.24746228
BS3167,Vaidyasalapady,10.14293021,76.37808921
BS3168,Vaidyashala Bus Stop Or Ashupathripadi,10.11363268,76.50565012
BS3169,vaidyashalapady,10.1429199,76.37810181
BS3170,Vaikolmukku,10.04227442,76.34789943
BS3171,Vaikom Pazhe Private Stand,9.751836988,76.39051991
BS3172,Vaikom Stand Or Dalavakulam Stand,9.750151612,76.39849575
BS3173,Vaisseryppady,9.877144222,76.43315717
BS3174,Vakeelmukku,9.817189126,76.27936818
BS3175,Vakkeel Pady,10.23692824,76.34786787
BS3176,Valakkada Kavu,10.0915584,76.47542953
BS3177,Valakkara,10.09028375,76.47774029
BS3178,Valamboor,10.0107625,76.45569617
BS3179,Valamboor Ambalam,10.02175982,76.47496803
BS3180,Valamboor Government School,10.02502574,76.47323787
BS3181,Valamboor Stop,10.02145982,76.47400481
BS3182,Valanjambalam,9.730162586,76.41425897
BS3183,Valanjambalam Or South,9.964692461,76.28887536
BS3184,Valapad,10.39707057,76.1153606
BS3185,Valapally,9.793969438,76.42317012
BS3186,Valappil Paalam,9.846195541,76.48733991
BS3187,Valappu,9.86956502,76.57488022
BS3188,Valappu Bus Stop,10.01475825,76.22759241
BS3189,Valav,10.1178062,76.31931285
BS3190,Valavoor,9.749392074,76.64408236
BS3191,Valavoor Palli,9.746975162,76.64514074
BS3192,Valavu,9.939884638,76.41359293
BS3193,Valavu Bus Stop,10.12380477,76.25247649
BS3194,Valayanchirangara,10.06616642,76.4939649
BS3195,Valayanchirangara Temple,10.05777699,76.493279
BS3196,Valethupady,10.01635467,76.45482438
BS3197,Valiya Canal,9.986904891,76.45044144
BS3198,Valiya Kavala,9.757876178,76.39580105
BS3199,Valiyakulam,9.905544665,76.36743206
BS3200,Valiyanad,9.870541464,76.45180874
BS3201,Valiyapadam,9.889456088,76.56266694
BS3202,Valiyapallumthuruth,10.17019249,76.229633
BS3203,Valiyaparambu Bus Stop,10.23170373,76.28403386
BS3204,Valiyavettil Kunnu,10.14236768,76.19015311
BS3205,Vallakom,9.766962695,76.41555627
BS3206,Vallakuriz,9.894108325,76.38397315
BS3207,Vallam,10.13600722,76.46771421
BS3208,Vallarpadam,9.977994166,76.255524
BS3209,Vallarpadam baslica,9.990882311,76.24948416
BS3210,Vallarpadam Junction,9.98750279,76.25340316
BS3211,Vallasherippady,9.944844244,76.47380197
BS3212,Vallathol Padi,10.03614476,76.3380087
BS3213,Valley Padi Stop,9.90084217,76.48649378
BS3214,Vallom,10.13561676,76.46780222
BS3215,Valluvalli,10.12368492,76.25837718
BS3216,Vanitha Hostel Junction,9.692267564,76.34608894
BS3217,Vannappuram,9.994858019,76.78310788
BS3218,Vanndipetta Junction,9.941804158,76.4105364
BS3219,Varan Kavala,9.589719273,76.30486542
BS3220,Varappuzha Toll Junction Or Mannam Thuruthu Or Cheranelloor,10.07819175,76.27550219
BS3221,Varapuzha Chettibhagham Bus Stand,10.07511317,76.27142979
BS3222,Varapuzha Market,10.0781375,76.27105078
BS3223,Varikkamkkunnu,9.816465026,76.44077163
BS3224,Varnam Nagar or Ismail Mukku,10.0673507,76.36306315
BS3225,Varyarupady,10.12525622,76.5304911
BS3226,Varyatt,10.13465918,76.41663467
BS3227,Vasudevavilasam Valavu,10.24834093,76.18818091
BS3228,Vat Bus Stop,9.901525015,76.29511336
BS3229,Vatakaalmukk,9.805491768,76.30098408
BS3230,Vatanapally,10.46939075,76.08085171
BS3231,Vathimattom,10.05685815,76.45689429
BS3232,Vathuruthy Bus Stop,9.936825225,76.27844078
BS3233,Vattakkeril Ambalam,9.868784049,76.31136419
BS3234,Vattaparambu,10.19441489,76.34226785
BS3235,Vattappara,9.854053926,76.44738035
BS3236,Vattapparambu,10.19449715,76.34248905
BS3237,Vattapparambu Junction,10.19447571,76.34240993
BS3238,Vattathara,10.16106555,76.43274252
BS3239,Vattekkad,10.23410529,76.41144922
BS3240,Vattekkatu Ambalam,10.02295297,76.2554011
BS3241,Vattoli Padi Or Neduvellikudy,10.11296991,76.50869924
BS3242,Vattu Valavu,9.707040633,76.33885422
BS3243,Vattukunnu,9.91376061,76.38771978
BS3244,Vavakad,10.1775003,76.20076334
BS3245,Vayalampad,9.981234811,76.42766073
BS3246,Vayalar,9.723901322,76.318264
BS3247,Vayalar Bridge,9.699759214,76.33787384
BS3248,Vayalar Co Operative Bank,9.704843308,76.33892484
BS3249,Vayalar Junction,9.723991595,76.31808065
BS3250,Vayalar Market,9.721237612,76.33741217
BS3251,Vayalar Pady,10.02038334,76.41482858
BS3252,Vayanakod Valavu,10.04412378,76.35778211
BS3253,Vayanasala,10.0148442,76.28547649
BS3254,Vayanashala,10.01409957,76.26004397
BS3255,Vayashalappadi,10.02799812,76.47410536
BS3256,Vazhachal,10.24824956,76.38634846
BS3257,Vazhakkala Bus Stop,10.01240156,76.32638853
BS3258,Vazhakkulam,9.944276029,76.63951581
BS3259,Vazhapilli,9.996806085,76.57191264
BS3260,Vazhappilly,10.06371706,76.27734112
BS3261,Vazhatharaveli,9.830536393,76.3408372
BS3262,Vazhatharavelli,9.83026591,76.34093805
BS3263,Vazhicherry,9.499906361,76.33396216
BS3264,Vazhikulangara,10.13347591,76.24040731
BS3265,Vazhiyambalam,10.326602,76.14296706
BS3266,Vedimara,10.14873499,76.24410973
BS3267,Veeramagalam,9.8207975,76.34561328
BS3268,Veeramagalam Kavala,9.820741999,76.3455697
BS3269,Veettoor,10.01535821,76.52729398
BS3270,Veettoor Dippo,10.01300349,76.53746494
BS3271,Veettoor Palli Stop,10.01479166,76.53552755
BS3272,Veettoor School Padi,10.01630807,76.53106114
BS3273,Velanga Paara,9.869119158,76.53946431
BS3274,Velankanni Matha Palli Stop,10.16809129,76.16904964
BS3275,Velankanni Palli,9.831793956,76.27075425
BS3276,Veli Bus Stop,9.94867386,76.24485656
BS3277,Veli Ground,9.951614255,76.24474726
BS3278,Veliya Kavala,9.756872587,76.39545438
BS3279,Veliya Palli Or Albhudha Vilakku,9.864831735,76.59402638
BS3280,Veliyathaamparambu Bus Stop,10.05678462,76.21507408
BS3281,Veliyathupadi,10.00597957,76.54674757
BS3282,Vellakkattel Padi,9.871946107,76.56848366
BS3283,Vellamparamb,10.04044298,76.22800127
BS3284,Vellappara,10.27602302,76.43672386
BS3285,Vellarapilly Junction Or Shapumpadi,10.12424717,76.41831657
BS3286,Vellarapilly Or Thiruviranikkulam Ambalam Stop,10.11984845,76.41832208
BS3287,Vellethode,9.795025739,76.30242639
BS3288,Vellimuttam Or Malabar Cement,9.747854102,76.36337284
BS3289,Vellooekunnam Junction,9.990814843,76.57463415
BS3290,Velloor,9.831968387,76.45377362
BS3291,Velloor Vattam Stop,9.694650113,76.32879488
BS3292,Velloorkunnam,9.990566509,76.57781862
BS3293,Velya Karottu Kunnu Nerappu,9.862031662,76.52459359
BS3294,Vengachuvadu,9.935216926,76.65732737
BS3295,Vengalloor,9.909507509,76.70150618
BS3296,Vengalloor Junction,9.908569849,76.70292521
BS3297,Vengola,10.08342047,76.46594516
BS3298,Vengola Panchayath,10.08040392,76.4663844
BS3299,Vengoor Ambalam,10.13467301,76.54477073
BS3300,Vengoor Junction,10.14042176,76.53693656
BS3301,Venmattom,9.977432761,76.80200228
BS3302,Vennala High School Junction,9.995575388,76.32575656
BS3303,Vennikulam,9.947159946,76.39527698
BS3304,Vennithara,9.993406057,76.38961852
BS3305,Venu Peedika,10.04773514,76.35397145
BS3306,Veranal Junction,9.742335718,76.64955313
BS3307,Veruvalli,9.680265144,76.42058548
BS3308,Vettakkal Punchure Kada,9.733587743,76.28999272
BS3309,Vettaykkal Palli  St Antony Church,9.722867781,76.28715226
BS3310,Vettikavu,9.97700363,76.35383636
BS3311,Vettikkal,9.914769599,76.4210394
BS3312,Vettikkal Junction,9.9136648,76.42448809
BS3313,Vettikkattumukku,9.80435968,76.45343138
BS3314,Vettikulam,9.889107409,76.40956071
BS3315,Vettingakkavu,10.13094942,76.446362
BS3316,Vettukadavu,10.00855692,76.2188904
BS3317,Vettuvalav,10.1591656,76.54884467
BS3318,Vidangara Or Railway Cross,9.86216191,76.41319181
BS3319,Vietnam,9.726538621,76.41536195
BS3320,Vijaya Hospital or Pump,9.970294011,76.2986515
BS3321,Vikas Vani,10.03064119,76.37106255
BS3322,Vilangue,10.05225764,76.42985168
BS3323,Village,10.11910453,76.24662777
BS3324,village office,10.10269049,76.39094362
BS3325,Village Office Or Mazhuvannoor Society,10.00833075,76.48522433
BS3326,Vimala Ambalam,10.06004222,76.49385483
BS3327,Viman Gate,9.942949194,76.26981342
BS3328,Vinayaka Or Kavalakkal Ambalam,9.972970609,76.29810448
BS3329,Vishnu puram Ambalam,10.05137253,76.28955361
BS3330,Vishnupuram Temple,10.30492398,76.37320272
BS3331,Vishwakarma Junction,9.787444328,76.45862227
BS3332,Vishwapuram,10.06181618,76.49371565
BS3333,Vrindavan Bus Stop,10.10912206,76.32148954
BS3334,Vrindavanam Bus Stop,10.14924587,76.21817224
BS3335,Vrindhavan Or Kottaikkavu,10.15064736,76.21847501
BS3336,Vykolmukku,10.03922391,76.35071307
BS3337,Vymeeti Bus Stop,9.95633691,76.35314176
BS3338,Vypin Bus Stand,9.973345007,76.24420138
BS3339,Vypin Padi,9.763682918,76.39570606
BS3340,Vyshali,9.987390396,76.31600457
BS3341,Vytila Bus Stop,9.970884302,76.3179797
BS3342,Vytila Hub Bus Stand,9.969421481,76.32149112
BS3343,Vytila Hub Bus Stop,9.967487953,76.31911947
BS3344,Vytila Hub Private Bus Stand,9.968495152,76.32187419
BS3345,Vytila Junction,9.966562211,76.31946092
BS3346,Vytila Junction Bus Stop,9.968756495,76.31684165
BS3347,Vytila North,9.970170352,76.31758896
BS3348,Vytila West Power House,9.967415679,76.31816112
BS3349,Warehouse Or Thrivenippadi,10.13935359,76.24654203
BS3350,Water Tank,9.905000014,76.33295713
BS3351,Water Tank Or Ponnarimangalam,10.00406562,76.26016956
BS3352,Water Tank Or Kannamali,9.884476076,76.26144409
BS3353,Welcare College,9.914381994,76.4339922
BS3354,Welding Workshop Or Society Padi,10.25176289,76.39040088
BS3355,West Arakulam,10.21269389,76.20042444
BS3356,West Kadungalloor,10.10667019,76.31847455
BS3357,West Karuvelipady,9.939408083,76.25551684
BS3358,West Nada,10.59436299,76.03690629
BS3359,West Thykoodam,9.95869264,76.31855776
BS3360,Williams Bus Stop,10.56501398,76.03150286
BS3361,Willingdon Island,9.969201585,76.25930226
BS3362,Winners School,9.923237223,76.77024046
BS3363,Wirobs,10.06210595,76.39527299
BS3364,Wonderla,10.02836793,76.39323067
BS3365,Woodland Junction,9.970349895,76.28717481
BS3366,Work Shop,10.04659353,76.30283633
BS3367,Workshop,10.1849036,76.47139118
BS3368,Workshop Kavala,10.08477509,76.35841079
BS3369,Xavier Desh Palli Or Colony,9.801385715,76.277424
BS3370,Y M A Junction,9.992679434,76.49192417
BS3371,Ymca,10.00665193,76.42943966
BS3372,Ymca Maneed,9.905776171,76.45454527
BS3373,Ymca Thottumugham,10.1133791,76.37542695
BS3374,Yodhanapuram Valavu,10.18896084,76.43121199
BS3375,Yordhanapuram,10.19425781,76.4307414
BS3376,Yuvadhara,10.06970766,76.27274919
BS3377,Yuvajana Samajam Stop,9.952516549,76.30262687
BS3378,Zeenath,10.10448537,76.35881215
BS3379,Zeenath Theater Or Power House Junction,10.10505384,76.3586211
